X,Y,FID,Mode,Route,Direction,Stop_Code,Stop,Lat,Lon,Sign_Up,Weekday_On,Weekday_Of,Saturday_O,Saturday_1,Sunday_Ons,Sunday_Off
-8368439.6034386,4878091.41265284,1,Bus,18,Eastbound,15424,Roumfort Rd & Cheltenham Av - FS,40.083553,-75.174972,Spring 2025,17,0,6,1,3,0
-8368556.8228624,4877932.67837442,2,Bus,18,Eastbound,15428,Roumfort Rd & Pickering Av,40.082462,-75.176025,Spring 2025,36,2,20,8,16,4
-8368718.12480456,4877723.46146057,3,Bus,18,Eastbound,15431,Roumfort Rd & Michener Av,40.081024,-75.177474,Spring 2025,54,31,19,21,18,10
-8368525.430766,4877547.42005374,4,Bus,18,Eastbound,15432,Michener Av & Gowen Av,40.079814,-75.175743,Spring 2025,34,8,13,4,8,5
-8368189.91382075,4877294.4205685,5,Bus,18,Eastbound,15451,Michener Av & Mt Airy Av,40.078075,-75.172729,Spring 2025,25,5,15,2,8,0
-8367936.77329869,4877102.96579343,6,Bus,18,Eastbound,15453,Michener Av & Mt Pleasant Av,40.076759,-75.170455,Spring 2025,23,7,9,6,9,3
-8368090.50551547,4876881.54626783,7,Bus,18,Eastbound,15456,Mt Pleasant Av & Williams Av,40.075237,-75.171836,Spring 2025,41,8,8,12,16,4
-8368218.74556886,4876658.38599758,8,Bus,18,Eastbound,15457,Thouron Av & Mt Pleasant Av - FS,40.073703,-75.172988,Spring 2025,66,9,20,5,12,3
-8368090.50551547,4876564.11902328,9,Bus,18,Eastbound,15459,Thouron Av & Sedgwick St,40.073055,-75.171836,Spring 2025,43,12,5,0,3,1
-8367786.49198611,4876333.83788715,10,Bus,18,Eastbound,15461,Thouron Av & Vernon Rd,40.071472,-75.169105,Spring 2025,50,18,28,11,24,13
-8367531.68167169,4876145.16554417,11,Bus,18,Eastbound,15479,Thouron Av & Phil Ellena St,40.070175,-75.166816,Spring 2025,53,16,34,11,18,5
-8367377.9494549,4876029.08365192,12,Bus,18,Eastbound,15481,Thouron Av & Sharpnack St,40.069377,-75.165435,Spring 2025,24,13,12,7,11,6
-8367255.72065401,4875930.8951431,13,Bus,18,Eastbound,15483,Thouron Av & Upsal St,40.068702,-75.164337,Spring 2025,55,29,30,14,30,8
-8367406.00196658,4875759.97672653,14,Bus,18,Eastbound,15484,Upsal St & Woolston Av,40.067527,-75.165687,Spring 2025,75,20,36,13,25,11
-8367676.95360717,4875431.53071808,15,Bus,18,Eastbound,15488,Upsal St & Lowber Av,40.065269,-75.168121,Spring 2025,39,10,24,5,6,5
-8367975.84643995,4875060.91472586,16,Bus,18,Eastbound,15490,Upsal St & Stenton Av,40.062721,-75.170806,Spring 2025,31,64,22,26,15,13
-8368504.16874326,4875399.96672821,17,Bus,18,Eastbound,15506,Vernon Rd & Stenton Av - FS,40.065052,-75.175552,Spring 2025,64,15,34,14,31,10
-8368585.65461052,4875232.2574453,18,Bus,18,Eastbound,15509,Vernon Rd & Crittenden St,40.063899,-75.176284,Spring 2025,27,7,14,4,14,2
-8368702.87403432,4875000.40730866,19,Bus,18,Eastbound,15510,Vernon Rd & Anderson St,40.062305,-75.177337,Spring 2025,4,0,4,3,5,0
-8368736.04724258,4874809.57864359,20,Bus,18,Eastbound,15514,Vernon Rd & Ardleigh St,40.060993,-75.177635,Spring 2025,11,2,10,0,3,2
-8368791.26171001,4874654.2421689,21,Bus,18,Eastbound,15515,Vernon Rd & Blakemore St,40.059925,-75.178131,Spring 2025,35,38,16,11,15,10
-8368835.34422837,4874476.65541812,22,Bus,18,Eastbound,15516,Sprague St & Phil Ellena St,40.058704,-75.178527,Spring 2025,42,19,37,11,20,4
-8368982.28595622,4874248.60437251,23,Bus,18,Eastbound,15517,Phil Ellena St & Boyers St,40.057136,-75.179847,Spring 2025,19,5,11,1,6,0
-8369143.69921787,4874043.82831331,24,Bus,18,Eastbound,15518,Phil Ellena St & Chew Av,40.055728,-75.181297,Spring 2025,77,22,45,22,33,11
-8369035.83063129,4873933.44297397,25,Bus,18,Eastbound,15519,Chew Av & Hortter St,40.054969,-75.180328,Spring 2025,43,17,25,10,18,6
-8368788.70136173,4873732.60007515,26,Bus,18,Eastbound,15520,Chew Av & Upsal St,40.053588,-75.178108,Spring 2025,108,31,48,10,37,12
-8368667.25179727,4873630.50770704,27,Bus,18,Eastbound,15521,Chew Av & Cliveden St,40.052886,-75.177017,Spring 2025,37,9,17,9,19,4
-8368543.24188453,4873532.92467429,28,Bus,18,Eastbound,15522,Chew Av & Johnson St,40.052215,-75.175903,Spring 2025,33,7,24,8,15,2
-8368418.34141586,4873434.17918543,29,Bus,18,Eastbound,15523,Chew Av & Duval St,40.051536,-75.174781,Spring 2025,44,11,24,5,18,5
-8368268.95065921,4873311.00320194,30,Bus,18,Eastbound,15524,Chew Av & Washington Ln,40.050689,-75.173439,Spring 2025,222,55,109,37,95,37
-8368087.16593075,4873168.48744515,31,Bus,18,Eastbound,15525,Chew Av & Tulpehocken St,40.049709,-75.171806,Spring 2025,48,10,36,6,27,3
-8367996.21790677,4873097.95744592,32,Bus,18,Eastbound,15526,Chew Av & Herman St,40.049224,-75.170989,Spring 2025,43,13,23,4,18,4
-8367788.16177848,4872927.66955753,33,Bus,18,Eastbound,15527,Chew Av & High St,40.048053,-75.16912,Spring 2025,23,6,12,3,10,2
-8367651.46144378,4872817.87831976,34,Bus,18,Eastbound,15579,Chew Av & Haines St,40.047298,-75.167892,Spring 2025,19,8,17,4,9,3
-8367551.27390207,4872736.29912789,35,Bus,18,Eastbound,15582,Chew Av & Rittenhouse St,40.046737,-75.166992,Spring 2025,6,5,8,5,6,3
-8368197.59486561,4875218.43937423,36,Bus,18,Eastbound,15583,Stenton Av & Phi Ellena St,40.063804,-75.172798,Spring 2025,16,8,7,5,4,7
-8367458.65608573,4872660.3918197,37,Bus,18,Eastbound,15584,Chew Av & Price St,40.046215,-75.16616,Spring 2025,16,14,8,11,8,5
-8368285.87122181,4875287.82083086,38,Bus,18,Eastbound,15585,Stenton Av & Dorset St,40.064281,-75.173591,Spring 2025,4,1,3,0,1,1
-8367085.84711106,4872362.43944109,39,Bus,18,Eastbound,15586,Chew Av & Locust Av,40.044166,-75.162811,Spring 2025,65,27,52,15,34,22
-8366929.55454599,4872235.93235469,40,Bus,18,Eastbound,15587,Chew Av & Church Ln,40.043296,-75.161407,Spring 2025,72,33,84,37,46,28
-8362491.914365,4871064.00092071,41,Bus,18,Eastbound,15697,Olney Av & Front St,40.035236,-75.121543,Spring 2025,96,232,61,208,46,128
-8362063.8909229,4870993.48589166,42,Bus,18,Eastbound,15698,Olney Av & B St,40.034751,-75.117698,Spring 2025,19,78,18,40,11,29
-8366639.12199451,4872002.98904622,43,Bus,18,Eastbound,15779,Chew Av & Penn Blvd,40.041694,-75.158798,Spring 2025,89,28,73,22,47,16
-8366468.35789563,4871879.24922755,44,Bus,18,Eastbound,15782,Olney Av & Elkins Av,40.040843,-75.157264,Spring 2025,23,8,19,5,12,4
-8366343.56874645,4871799.4225965,45,Bus,18,Eastbound,15786,Olney Av & 20th St - MBNS,40.040294,-75.156143,Spring 2025,1,4,2,1,2,2
-8366128.61080973,4871672.9226942,46,Bus,18,Eastbound,15789,Olney Av & 20th St - FS,40.039424,-75.154212,Spring 2025,41,18,24,4,13,10
-8365927.34517038,4871639.18965951,47,Bus,18,Eastbound,15791,Olney Av & 18th St - MBNS,40.039192,-75.152404,Spring 2025,18,17,7,1,8,4
-8365682.7762491,4871601.96713373,48,Bus,18,Eastbound,15792,Olney Av & Ogontz Av,40.038936,-75.150207,Spring 2025,154,35,29,14,18,8
-8365506.11221721,4871603.71193651,49,Bus,18,Eastbound,15793,Olney Av & 16th St,40.038948,-75.14862,Spring 2025,10,9,3,6,4,0
-8365290.37504406,4871610.25494964,50,Bus,18,Eastbound,15794,Olney Av & 15th St,40.038993,-75.146682,Spring 2025,12,14,4,9,2,3
-8364819.04832004,4871540.89923009,51,Bus,18,Eastbound,15795,Olney Av & 13th St - FS,40.038516,-75.142448,Spring 2025,38,18,18,10,15,6
-8364498.00290859,4871446.68091659,52,Bus,18,Eastbound,15798,Olney Av & 11th St,40.037868,-75.139564,Spring 2025,62,39,40,27,32,16
-8364325.56901735,4871395.64637061,53,Bus,18,Eastbound,15799,Olney Av & 10th St,40.037517,-75.138015,Spring 2025,16,26,12,14,10,9
-8364165.93686756,4871347.37462015,54,Bus,18,Eastbound,15800,Olney Av & Wagner Av,40.037185,-75.136581,Spring 2025,13,16,5,6,9,6
-8363900.99647947,4871298.08533431,55,Bus,18,Eastbound,15814,Olney Av & 7th St,40.036846,-75.134201,Spring 2025,100,173,19,15,5,11
-8363719.211751,4871270.31478266,56,Bus,18,Eastbound,15815,Olney Av & 6th St,40.036655,-75.132568,Spring 2025,14,30,6,20,9,17
-8363506.92548206,4871233.0936417,57,Bus,18,Eastbound,15817,Olney Av & 5th St,40.036399,-75.130661,Spring 2025,199,324,168,250,106,136
-8363182.4291664,4871179.29770831,58,Bus,18,Eastbound,15819,Olney Av & 3rd St,40.036029,-75.127746,Spring 2025,31,42,18,28,14,27
-8362930.17920026,4871135.53420484,59,Bus,18,Eastbound,15820,Olney Av & 2nd St,40.035728,-75.12548,Spring 2025,23,43,15,39,7,32
-8362762.86600559,4871108.92725229,60,Bus,18,Eastbound,15822,Olney Av & Mascher St,40.035545,-75.123977,Spring 2025,29,57,20,44,12,27
-8361423.58121186,4871441.73738783,61,Bus,18,Eastbound,15833,Rising Sun Av & Chew Av - MBFS,40.037834,-75.111946,Spring 2025,1,20,3,10,3,9
-8361220.53446066,4871612.58135535,62,Bus,18,Eastbound,15834,Rising Sun Av & Adams Av,40.039009,-75.110122,Spring 2025,46,114,18,99,11,69
-8361075.37384466,4871737.91726999,63,Bus,18,Eastbound,15835,Rising Sun Av & Adams - MBFS,40.039871,-75.108818,Spring 2025,104,124,85,107,49,54
-8360847.72548599,4871935.95706085,64,Bus,18,Eastbound,15837,Rising Sun Av & Godfrey Av,40.041233,-75.106773,Spring 2025,11,52,7,30,9,25
-8360749.98697307,4872021.31023172,65,Bus,18,Eastbound,15838,Rising Sun Av & Sanger St,40.04182,-75.105895,Spring 2025,21,44,14,21,10,15
-8360581.00398605,4872166.13603253,66,Bus,18,Eastbound,15839,Rising Sun Av & Cheltenham Av,40.042816,-75.104377,Spring 2025,34,112,21,63,13,42
-8360396.77022878,4872323.61468081,67,Bus,18,Eastbound,15841,Rising Sun Av & Van Kirk St,40.043899,-75.102722,Spring 2025,56,138,22,78,21,52
-8360220.88543333,4872474.98848185,68,Bus,18,Eastbound,15842,Rising Sun Av & Comly St,40.04494,-75.101142,Spring 2025,47,87,25,49,18,38
-8360046.00251329,4872624.32878117,69,Bus,18,Eastbound,15843,Rising Sun Av & Benner St,40.045967,-75.099571,Spring 2025,11,36,10,24,8,27
-8359882.91945928,4872768.00005317,70,Bus,18,Eastbound,15845,Rising Sun Av & Devereaux Av,40.046955,-75.098106,Spring 2025,37,81,22,31,8,29
-8359742.76822037,4872956.02643243,71,Bus,18,Eastbound,15847,Rising Sun Av & Robbins St,40.048248,-75.096847,Spring 2025,16,46,5,29,5,26
-8359609.4074704,4873134.60389835,72,Bus,18,Eastbound,15848,Rising Sun Av & Levick St,40.049476,-75.095649,Spring 2025,33,102,13,87,10,45
-8359447.21497232,4873353.17662491,73,Bus,18,Eastbound,15850,Rising Sun Av & Hellerman St,40.050979,-75.094192,Spring 2025,24,64,10,38,6,21
-8359326.65596379,4873512.41927093,74,Bus,18,Eastbound,15851,Rising Sun Av & Magee Av,40.052074,-75.093109,Spring 2025,12,33,13,35,5,26
-8359223.01751786,4873651.15878497,75,Bus,18,Eastbound,15852,Rising Sun Av & Martins Mill Rd,40.053028,-75.092178,Spring 2025,30,77,13,40,7,30
-8358933.36420282,4874033.35692399,76,Bus,18,Eastbound,15869,Rising Sun Av & Longshore Av,40.055656,-75.089576,Spring 2025,20,84,11,54,10,48
-8358798.33366048,4874207.59064681,77,Bus,18,Eastbound,15870,Rising Sun Av & Tyson Av,40.056854,-75.088363,Spring 2025,2,19,1,13,3,10
-8358525.71222753,4874569.30265438,78,Bus,18,Eastbound,15872,Rising Sun Av & Saint Vincent St,40.059341,-75.085914,Spring 2025,5,55,2,24,1,17
-8358293.05449177,4874869.503103,79,Bus,18,Eastbound,15874,Rising Sun Av & Cottman Av,40.061405,-75.083824,Spring 2025,38,450,19,225,13,154
-8358245.40974971,4875170.14900349,80,Bus,18,Eastbound,15875,Oxford Av & Bleigh Av,40.063472,-75.083396,Spring 2025,20,70,7,31,2,19
-8358251.42100222,4875362.7300768,81,Bus,18,Eastbound,15876,Oxford Av & Verree Rd - MBNS,40.064796,-75.08345,Spring 2025,6,26,5,10,0,7
-8358298.95442478,4875630.22616101,82,Bus,18,Eastbound,15877,Oxford Av & Rockwell Av,40.066635,-75.083877,Spring 2025,3,4,2,1,0,1
-8358330.34652119,4876221.09954781,83,Bus,18,Eastbound,15878,Oxford Av & Rockwell Av - MBFS,40.070697,-75.084159,Spring 2025,1,4,0,2,0,4
-8358354.16889222,4876413.11916499,84,Bus,18,Eastbound,15879,Oxford Av & Hartel Av - FS,40.072017,-75.084373,Spring 2025,2,12,0,2,0,8
-8358377.99126325,4876604.56060919,85,Bus,18,Eastbound,15880,Oxford Av & Hasbrook Av,40.073333,-75.084587,Spring 2025,7,16,0,14,0,8
-8367836.58575697,4874928.26433254,86,Bus,18,Eastbound,18468,Stenton Av & Cardeza St,40.061809,-75.169555,Spring 2025,3,0,0,0,0,0
-8365740.55106482,4871708.54606664,87,Bus,18,Eastbound,20606,Ogontz Av & Olney Av - MBNS,40.039669,-75.150726,Spring 2025,2,1,0,0,0,0
-8358481.51838969,4877087.98126731,88,Bus,18,Eastbound,20851,Fox Chase Loop,40.076656,-75.085517,Spring 2025,0,135,0,91,0,80
-8358387.34210047,4876716.13950979,89,Bus,18,Eastbound,23620,Oxford Av & Borbeck Av - FS,40.0741,-75.084671,Spring 2025,10,37,0,22,0,16
-8367439.17517484,4878000.33291165,90,Bus,18,Eastbound,25973,Cedarbrook Plaza - 4,40.082927,-75.165985,Spring 2025,166,0,150,0,100,0
-8367708.34570358,4878120.22079644,91,Bus,18,Eastbound,25974,Cedarbrook Plaza Stop - 5,40.083751,-75.168403,Spring 2025,10,0,3,0,5,0
-8367921.52252845,4876435.37622493,92,Bus,18,Eastbound,28403,Thouron Av & Gorgas Ln,40.07217,-75.170318,Spring 2025,39,6,7,4,12,3
-8361648.55790276,4871098.89514118,93,Bus,18,Eastbound,28404,Rising Sun Av & Chew Av - FS,40.035476,-75.113967,Spring 2025,7,6,6,3,1,3
-8361774.34892735,4870948.56008313,94,Bus,18,Eastbound,30996,Olney Av & Rising Sun Av,40.034442,-75.115097,Spring 2025,142,100,75,60,55,48
-8358712.61765257,4874325.1056052,95,Bus,18,Eastbound,31104,Rising Sun Av & Princeton Av - MBNS,40.057662,-75.087593,Spring 2025,1,22,1,14,1,12
-8366295.14476796,4873804.73434814,96,Bus,18,Eastbound,31436,Stenton Av & Wyncote Av,40.054084,-75.155708,Spring 2025,5,9,0,0,0,0
-8365732.87001996,4873464.13721212,97,Bus,18,Eastbound,31520,Stenton Av & Chelten Av,40.051742,-75.150657,Spring 2025,2,2,0,0,0,0
-8358656.51262921,4874401.17110454,98,Bus,18,Eastbound,32059,Rising Sun Av & Princeton Av,40.058185,-75.087089,Spring 2025,1,13,3,10,0,3
-8367962.26546208,4875021.49759242,99,Bus,18,Eastbound,32387,Stenton Av & Upsal St - FS,40.06245,-75.170684,Spring 2025,0,0,0,0,0,0
-8367323.6255434,4872570.96154149,100,Bus,18,Westbound,223,Chew Av & Chelten Av - FS,40.0456,-75.164947,Spring 2025,153,184,64,165,52,112
-8359069.28530107,4873875.26937677,101,Bus,18,Westbound,378,Rising Sun Av & Knorr St,40.054569,-75.090797,Spring 2025,32,15,25,3,23,7
-8361758.20760119,4870960.3367317,102,Bus,18,Westbound,379,Rising Sun Av & Olney Av,40.034523,-75.114952,Spring 2025,89,132,69,74,45,49
-8364824.16901661,4871556.45696983,103,Bus,18,Westbound,381,Olney Av & 13th St,40.038623,-75.142494,Spring 2025,173,185,62,60,43,42
-8367873.09854995,4875164.03999746,104,Bus,18,Westbound,383,Upsal St & Mansfield St,40.06343,-75.169883,Spring 2025,14,10,6,14,2,4
-8368325.83491901,4877418.66447666,105,Bus,18,Westbound,384,Michener Av & Wadsworth Av,40.078929,-75.17395,Spring 2025,13,93,7,53,3,32
-8368020.0402778,4877899.36050331,106,Bus,18,Westbound,385,Easton Rd & Cheltenham Av - FS,40.082233,-75.171203,Spring 2025,2,52,0,48,0,31
-8358435.65475948,4876975.81626248,107,Bus,18,Westbound,476,Oxford Av & Loney St - FS,40.075885,-75.085105,Spring 2025,27,2,15,2,8,0
-8367475.68796782,4877902.70683464,108,Bus,18,Westbound,15420,Cedarbrook Plaza - 3,40.082256,-75.166313,Spring 2025,8,59,3,47,2,35
-8367805.19366057,4874923.90086293,109,Bus,18,Westbound,15577,Stenton Av & Cardeza St,40.061779,-75.169273,Spring 2025,1,2,0,0,0,0
-8362466.5335211,4871077.81320163,110,Bus,18,Westbound,15898,Olney Av & Front St,40.035331,-75.121315,Spring 2025,189,100,162,65,108,39
-8362731.47390919,4871121.72184351,111,Bus,18,Westbound,15899,Olney Av & Mascher St,40.035633,-75.123695,Spring 2025,43,29,37,21,24,17
-8364480.19179006,4871455.55019497,112,Bus,18,Westbound,15907,Olney Av & 11th St,40.037929,-75.139404,Spring 2025,24,33,26,23,15,10
-8364653.40491774,4871506.58504929,113,Bus,18,Westbound,15908,Olney Av & 12th St,40.03828,-75.14096,Spring 2025,25,26,17,12,10,6
-8365033.11570084,4871618.10657111,114,Bus,18,Westbound,15910,Olney Av & Broad St,40.039047,-75.144371,Spring 2025,970,928,652,670,494,442
-8365271.6733696,4871627.55760519,115,Bus,18,Westbound,15911,Olney Av & 15th St,40.039112,-75.146514,Spring 2025,24,18,17,19,14,11
-8365489.97089105,4871620.28757817,116,Bus,18,Westbound,15912,Olney Av & 16th St,40.039062,-75.148475,Spring 2025,37,19,14,13,13,15
-8365637.80317482,4871616.94336753,117,Bus,18,Westbound,15913,Olney Av & Ogontz Av,40.039039,-75.149803,Spring 2025,39,189,20,19,15,16
-8365907.86425949,4871651.83953407,118,Bus,18,Westbound,15914,Olney Av & 18th St - FS,40.039279,-75.152229,Spring 2025,29,32,12,27,11,11
-8366143.97289946,4871691.24326975,119,Bus,18,Westbound,15915,Olney Av & 20th St,40.03955,-75.15435,Spring 2025,15,29,5,21,10,17
-8366343.56874645,4871817.74340582,120,Bus,18,Westbound,15916,Olney Av & 20st St - MBFS,40.04042,-75.156143,Spring 2025,6,15,8,11,4,9
-8366507.4310369,4871925.92411288,121,Bus,18,Westbound,15917,Olney Av & Chew Av,40.041164,-75.157615,Spring 2025,12,40,12,37,3,23
-8366656.04255711,4872034.1060004,122,Bus,18,Westbound,15918,Olney Av & Penn Blvd - FS,40.041908,-75.15895,Spring 2025,29,73,20,62,9,39
-8366909.18307917,4872237.09563089,123,Bus,18,Westbound,15919,Chew Av & Church Ln,40.043304,-75.161224,Spring 2025,51,82,44,77,42,57
-8358409.38335965,4876751.05363512,124,Bus,18,Westbound,16382,Oxford Av & Borbeck Av,40.07434,-75.084869,Spring 2025,22,0,21,0,19,1
-8358371.98001075,4876423.15665642,125,Bus,18,Westbound,16383,Oxford Av & Hartel Av,40.072086,-75.084533,Spring 2025,35,0,13,0,14,0
-8358351.60854393,4876277.68676037,126,Bus,18,Westbound,16384,Oxford Av & Hartel Av - MBFS,40.071086,-75.08435,Spring 2025,4,0,0,0,0,0
-8358321.88623989,4875657.8634709,127,Bus,18,Westbound,16427,Oxford Av & Rockwell Av,40.066825,-75.084083,Spring 2025,12,1,7,1,2,0
-8358263.33218773,4875229.05746923,128,Bus,18,Westbound,16429,Oxford Av & Bleigh Av,40.063877,-75.083557,Spring 2025,136,13,44,4,31,4
-8358290.49414348,4874900.48360881,129,Bus,18,Westbound,16430,Rising Sun Av & Cottman Av,40.061618,-75.083801,Spring 2025,388,52,189,26,133,16
-8358528.27257582,4874590.97379696,130,Bus,18,Westbound,16431,Rising Sun Av & Saint Vincent St,40.05949,-75.085937,Spring 2025,73,6,30,3,18,2
-8358663.30311815,4874413.96994575,131,Bus,18,Westbound,16432,Rising Sun Av & Princeton Av,40.058273,-75.08715,Spring 2025,17,5,16,4,5,1
-8358800.89400877,4874229.69731475,132,Bus,18,Westbound,16433,Rising Sun Av & Tyson Av,40.057006,-75.088386,Spring 2025,36,6,23,7,20,5
-8358934.25475874,4874052.26360719,133,Bus,18,Westbound,16434,Rising Sun Av & Longshore Av,40.055786,-75.089584,Spring 2025,84,24,37,11,25,10
-8359205.98563577,4873700.45977177,134,Bus,18,Westbound,16435,Rising Sun Av & Unruh Av,40.053367,-75.092025,Spring 2025,95,26,46,12,36,4
-8359326.65596379,4873540.19610411,135,Bus,18,Westbound,16436,Rising Sun Av & Magee Av,40.052265,-75.093109,Spring 2025,35,19,36,8,15,5
-8359447.21497232,4873380.37130661,136,Bus,18,Westbound,16711,Rising Sun Av & Hellerman St,40.051166,-75.094192,Spring 2025,65,30,33,18,26,4
-8359609.4074704,4873161.79798038,137,Bus,18,Westbound,16726,Rising Sun Av & Levick St,40.049663,-75.095649,Spring 2025,92,33,86,17,48,15
-8359742.76822037,4872983.22002456,138,Bus,18,Westbound,16727,Rising Sun Av & Robbins St,40.048435,-75.096847,Spring 2025,47,26,25,8,17,2
-8359874.45917798,4872803.48194299,139,Bus,18,Westbound,16728,Rising Sun Av & Devereaux Av,40.047199,-75.09803,Spring 2025,69,39,28,14,34,15
-8360040.88181672,4872652.53937272,140,Bus,18,Westbound,16729,Rising Sun Av & Benner St,40.046161,-75.099525,Spring 2025,39,21,23,5,14,7
-8360203.0743148,4872512.79593988,141,Bus,18,Westbound,16730,Rising Sun Av & Comly St,40.0452,-75.100982,Spring 2025,91,44,61,28,39,12
-8360391.64953221,4872348.04372572,142,Bus,18,Westbound,16731,Rising Sun Av & Van Kirk St,40.044067,-75.102676,Spring 2025,147,57,79,23,60,33
-8360577.66440132,4872192.74582239,143,Bus,18,Westbound,16732,Rising Sun Av & Cheltenham Av,40.042999,-75.104347,Spring 2025,117,41,57,22,42,14
-8360744.97759599,4872044.57527797,144,Bus,18,Westbound,16733,Rising Sun Av & Sanger St,40.04198,-75.10585,Spring 2025,38,23,28,6,20,6
-8360842.60478941,4871959.22190681,145,Bus,18,Westbound,16734,Rising Sun Av & Godfrey Av,40.041393,-75.106727,Spring 2025,60,9,30,12,22,6
-8361087.17371068,4871750.56727052,146,Bus,18,Westbound,16735,Rising Sun Av & Adams Av - MBNS,40.039958,-75.108924,Spring 2025,90,91,67,80,38,42
-8361183.13111175,4871667.97905262,147,Bus,18,Westbound,16736,Rising Sun Av & Adams Av,40.03939,-75.109786,Spring 2025,168,63,137,37,101,22
-8361440.50177446,4871443.33676451,148,Bus,18,Westbound,16737,Rising Sun & Adams - MBFS,40.037845,-75.112098,Spring 2025,12,2,0,1,5,0
-8361658.79929591,4871110.52657529,149,Bus,18,Westbound,16738,Rising Sun Av & Chew Av,40.035556,-75.114059,Spring 2025,6,3,5,5,3,3
-8362039.28931544,4871006.28033392,150,Bus,18,Westbound,16739,Olney Av & B St,40.034839,-75.117477,Spring 2025,105,29,44,14,27,13
-8362910.69828937,4871149.3465854,151,Bus,18,Westbound,16959,Olney Av & 2nd St,40.035823,-75.125305,Spring 2025,45,22,32,12,22,8
-8363476.31262209,4871245.88839314,152,Bus,18,Westbound,16962,Olney Av & 5th St,40.036487,-75.130386,Spring 2025,285,232,225,161,141,107
-8363699.61952062,4871281.94641786,153,Bus,18,Westbound,16963,Olney Av & 6th St,40.036735,-75.132392,Spring 2025,36,22,23,13,10,9
-8363883.96459738,4871312.4795252,154,Bus,18,Westbound,16964,Olney Av & 7th St,40.036945,-75.134048,Spring 2025,144,102,29,13,12,7
-8364295.06747688,4871402.91623291,155,Bus,18,Westbound,16966,Olney Av & 10th St,40.037567,-75.137741,Spring 2025,22,24,16,23,15,17
-8367066.25488068,4872363.60273213,156,Bus,18,Westbound,16979,Chew Av & Locust Av,40.044174,-75.162635,Spring 2025,18,72,19,50,12,35
-8367431.49412997,4872659.22849383,157,Bus,18,Westbound,16980,Chew Av & Price St,40.046207,-75.165916,Spring 2025,21,27,11,17,10,11
-8367522.33083446,4872733.53620801,158,Bus,18,Westbound,16981,Chew Av & Rittenhouse St,40.046718,-75.166732,Spring 2025,13,21,5,15,4,14
-8367614.05809488,4872807.8444792,159,Bus,18,Westbound,16982,Chew Av & Haines St,40.047229,-75.167556,Spring 2025,14,28,9,26,7,18
-8367746.52828892,4872912.69134353,160,Bus,18,Westbound,16983,Chew Av & High St,40.04795,-75.168746,Spring 2025,4,17,4,15,4,8
-8367941.11475883,4873073.6719747,161,Bus,18,Westbound,16984,Chew Av & Walnut Ln,40.049057,-75.170494,Spring 2025,10,51,10,31,10,26
-8368064.23411564,4873167.32405965,162,Bus,18,Westbound,17453,Chew Av & Tulpehocken St,40.049701,-75.1716,Spring 2025,13,36,3,30,2,21
-8368236.66800688,4873303.87736544,163,Bus,18,Westbound,17482,Chew Av & Washington Ln,40.05064,-75.173149,Spring 2025,52,189,41,90,24,74
-8368393.73980839,4873433.01576874,164,Bus,18,Westbound,17483,Chew Av & Duval St,40.051528,-75.17456,Spring 2025,22,33,9,17,5,27
-8368516.85916521,4873531.76124602,165,Bus,18,Westbound,17485,Chew Av & Johnson St,40.052207,-75.175666,Spring 2025,7,30,10,14,6,15
-8368670.591382,4873652.75851816,166,Bus,18,Westbound,17489,Chew Av & Cliveden St,40.053039,-75.177047,Spring 2025,10,46,3,30,7,19
-8368757.19794583,4873726.05566103,167,Bus,18,Westbound,17491,Chew Av & Upsal St,40.053543,-75.177825,Spring 2025,18,63,11,23,9,16
-8368934.75253365,4873866.3979332,168,Bus,18,Westbound,17495,Chew Av & Montana St,40.054508,-75.17942,Spring 2025,15,46,4,34,5,25
-8369013.78937211,4873930.09798288,169,Bus,18,Westbound,17499,Chew Av & Hortter St,40.054946,-75.18013,Spring 2025,14,33,6,18,6,12
-8369107.96566132,4874031.61169351,170,Bus,18,Westbound,17500,Phil Ellena St & Chew Av - FS,40.055644,-75.180976,Spring 2025,27,86,18,43,8,34
-8368967.9257419,4874213.11730917,171,Bus,18,Westbound,17502,Phil Ellena St & Boyer St,40.056892,-75.179718,Spring 2025,7,16,7,10,6,10
-8368791.26171001,4874438.40414305,172,Bus,18,Westbound,17505,Phil Ellena St & Sprague St,40.058441,-75.178131,Spring 2025,12,48,8,25,3,19
-8368767.43933898,4874652.49682909,173,Bus,18,Westbound,17518,Vernon Rd & Blakemore St - FS,40.059913,-75.177917,Spring 2025,24,30,10,11,9,14
-8368718.12480456,4874818.45093148,174,Bus,18,Westbound,17519,Vernon Rd & Ardleigh St - FS,40.061054,-75.177474,Spring 2025,3,11,1,6,0,8
-8368698.64389368,4874973.20818139,175,Bus,18,Westbound,17520,Vernon Rd & Anderson St,40.062118,-75.177299,Spring 2025,4,1,1,3,0,3
-8368582.3150258,4875208.98491565,176,Bus,18,Westbound,17523,Vernon Rd & Crittenden St,40.063739,-75.176254,Spring 2025,1,24,7,15,5,12
-8368482.90672052,4875409.85773726,177,Bus,18,Westbound,17525,Vernon Rd & Stenton Av,40.06512,-75.175361,Spring 2025,31,62,14,45,4,30
-8368225.5360578,4875222.36661352,178,Bus,18,Westbound,17532,Stenton Av & Phil Ellena St,40.063831,-75.173049,Spring 2025,6,10,4,7,3,6
-8367957.25608499,4875058.15115789,179,Bus,18,Westbound,17537,Upsal St & Stenton Av - FS,40.062702,-75.170639,Spring 2025,45,34,26,22,12,12
-8367782.26184546,4875277.20267289,180,Bus,18,Westbound,17540,Upsal St & Rodney St,40.064208,-75.169067,Spring 2025,6,5,6,5,8,2
-8367678.62339954,4875408.25772042,181,Bus,18,Westbound,17549,Upsal St & Lowber Av,40.065109,-75.168136,Spring 2025,5,34,8,14,5,11
-8367445.96566378,4875700.62872339,182,Bus,18,Westbound,17553,Upsal St & Woolston Av,40.067119,-75.166046,Spring 2025,15,57,6,23,4,27
-8367295.57303172,4875845.50829752,183,Bus,18,Westbound,17556,Upsal St & Gilbert St,40.068115,-75.164695,Spring 2025,15,55,9,47,7,27
-8367354.23840337,4876027.48353509,184,Bus,18,Westbound,17559,Thouron Av & Sharpnack St,40.069366,-75.165222,Spring 2025,14,45,7,21,4,22
-8367507.97062015,4876143.41994173,185,Bus,18,Westbound,17563,Thouron Av & Phil Ellena St,40.070163,-75.166603,Spring 2025,13,55,9,34,4,26
-8367763.56017101,4876332.67412999,186,Bus,18,Westbound,17566,Thouron Av & Vernon Rd,40.071464,-75.168899,Spring 2025,13,43,13,17,11,21
-8367898.59071334,4876433.63057137,187,Bus,18,Westbound,17569,Thouron Av & Gorgas Ln,40.072158,-75.170112,Spring 2025,3,35,5,9,5,9
-8368067.57370037,4876562.95523909,188,Bus,18,Westbound,17572,Thouron Av & Sedgwick St,40.073047,-75.17163,Spring 2025,4,36,1,11,1,11
-8368223.08702901,4876676.71579118,189,Bus,18,Westbound,17574,Thouron Av & Mt Pleasant Av,40.073829,-75.173027,Spring 2025,16,87,5,22,4,16
-8368091.3960714,4876858.26986403,190,Bus,18,Westbound,17578,Mt Pleasant Av & Williams Av,40.075077,-75.171844,Spring 2025,14,31,6,10,1,15
-8367933.43371396,4877117.95034221,191,Bus,18,Westbound,17582,Michener Av & Mt Pleasant Av - FS,40.076862,-75.170425,Spring 2025,3,27,3,12,1,11
-8368161.86130907,4877294.4205685,192,Bus,18,Westbound,17584,Michener Av & Mt Airy Av,40.078075,-75.172477,Spring 2025,4,24,0,7,1,8
-8368498.15749076,4877546.98359133,193,Bus,18,Westbound,17586,Michener Av & Gowen Av,40.079811,-75.175498,Spring 2025,3,44,5,20,1,16
-8368708.88528683,4877698.43720208,194,Bus,18,Westbound,17587,Michener Av & Roumfort Rd,40.080852,-75.177391,Spring 2025,9,47,9,24,5,19
-8368556.8228624,4877912.1638641,195,Bus,18,Westbound,17593,Roumfort Rd & Pickering Av,40.082321,-75.176025,Spring 2025,6,41,4,24,1,19
-8368416.6716235,4878097.52346418,196,Bus,18,Westbound,17595,Roumfort Rd & Cheltenham Av,40.083595,-75.174766,Spring 2025,0,13,3,1,4,2
-8368293.55226668,4878004.84323057,197,Bus,18,Westbound,17597,Cheltenham Av & Elaine St,40.082958,-75.17366,Spring 2025,0,1,0,0,1,2
-8368223.08702901,4877950.42855238,198,Bus,18,Westbound,17598,Cheltenham Av & Gowan Av,40.082584,-75.173027,Spring 2025,3,7,0,6,0,6
-8357103.16045468,4873987.25385538,199,Bus,18,Westbound,17690,Cottman Av & Algon St,40.055339,-75.073135,Spring 2025,20,0,0,0,0,0
-8368324.05380716,4875293.92991321,200,Bus,18,Westbound,18466,Stenton Av & Dorset St - FS,40.064323,-75.173934,Spring 2025,2,3,1,1,0,0
-8367400.10203357,4874623.11698832,201,Bus,18,Westbound,19062,Stenton Av & Washington Ln - FS,40.059711,-75.165634,Spring 2025,3,12,0,0,0,0
-8367786.49198611,4877819.48536475,202,Bus,18,Westbound,20850,Cedarbrook Plaza - 1,40.081684,-75.169105,Spring 2025,1,146,7,129,4,86
-8358481.51838969,4877087.98126731,203,Bus,18,Westbound,20851,Fox Chase Loop,40.076656,-75.085517,Spring 2025,196,0,124,0,96,0
-8367639.55025827,4877684.03373312,204,Bus,18,Westbound,25972,Cedarbrook Plaza - 2,40.080753,-75.167785,Spring 2025,3,55,3,45,1,23
-8367439.17517484,4878000.33291165,205,Bus,18,Westbound,25973,Cedarbrook Plaza - 4,40.082927,-75.165985,Spring 2025,0,50,0,51,0,36
-8365624.22219695,4873411.92886498,206,Bus,18,Westbound,27748,Stenton Av & Chelten Av,40.051383,-75.149681,Spring 2025,3,6,0,0,0,0
-8366227.12855908,4873782.62862805,207,Bus,18,Westbound,31519,Stenton Av & 21st St,40.053932,-75.155097,Spring 2025,0,8,0,0,0,0
-8363194.34035191,4871199.36210339,208,Bus,18,Westbound,32312,Olney Av & 3rd St - FS,40.036167,-75.127853,Spring 2025,36,35,26,16,22,17
-8364984.69172234,4871552.09498427,209,Bus,18,Westbound,32629,Olney Transit Center - Rt 18,40.038593,-75.143936,Spring 2025,91,0,0,0,0,0
-8358757.59072685,4871261.44566998,210,Bus,19,Northbound,389,Oxford Av & Summerdale Av - FS,40.036594,-75.087997,Spring 2025,10,13,3,5,0,0
-8355981.17130698,4875548.62381687,211,Bus,19,Northbound,391,Algon Av & Rhawn St,40.066074,-75.063056,Spring 2025,3,5,1,2,0,0
-8354092.41350669,4878478.72914809,212,Bus,19,Northbound,392,Krewstown Rd & Gregg St,40.086215,-75.046089,Spring 2025,3,11,2,6,0,0
-8351657.41096508,4877313.33347505,213,Bus,19,Northbound,394,Grant Av & Blue Grass Rd - 2,40.078205,-75.024215,Spring 2025,0,4,0,2,0,0
-8347172.23736153,4873839.78365014,214,Bus,19,Northbound,1102,Grant Av & James St - Torresdale Station,40.054325,-74.983924,Spring 2025,0,24,0,6,0,0
-8348852.15979709,4875310.51172713,215,Bus,19,Northbound,1235,Fordham Rd & Grant Av,40.064437,-74.999015,Spring 2025,0,0,0,0,0,0
-8358287.9337952,4872451.14077479,216,Bus,19,Northbound,15740,Algon Av & Hellerman St,40.044776,-75.083778,Spring 2025,6,7,1,2,0,0
-8347877.22369672,4874689.73081183,217,Bus,19,Northbound,19084,Grant Av & Frankford Av - FS,40.060169,-74.990257,Spring 2025,1,25,0,5,0,0
-8357619.57157247,4869429.05357412,218,Bus,19,Northbound,21967,Frankford Transit Center - Rt 19,40.02399,-75.077774,Spring 2025,188,0,67,0,0,0
-8347640.22450082,4874415.56980206,219,Bus,19,Northbound,22687,Grant Av & Torresdale Av,40.058284,-74.988128,Spring 2025,0,3,0,0,0,0
-8347303.92831913,4874024.48533892,220,Bus,19,Northbound,22688,Grant Av & Eden Hall Ln,40.055595,-74.985107,Spring 2025,2,4,0,0,0,0
-8357621.24136483,4869997.46015193,221,Bus,19,Northbound,22837,Cheltenham Av & Saul St,40.0279,-75.077789,Spring 2025,1,0,0,0,0,0
-8357748.5908623,4870091.22856186,222,Bus,19,Northbound,22838,Cheltenham Av & Oakland St,40.028545,-75.078933,Spring 2025,6,5,3,0,0,0
-8357945.62636101,4870238.78839775,223,Bus,19,Northbound,22839,Cheltenham Av & Horrocks St,40.02956,-75.080703,Spring 2025,5,5,0,4,0,0
-8358145.222208,4870387.3681062,224,Bus,19,Northbound,22840,Cheltenham Av & Large St,40.030582,-75.082496,Spring 2025,6,6,0,3,0,0
-8358299.84498071,4870502.2208741,225,Bus,19,Northbound,22841,Cheltenham Av & Roosevelt Blvd,40.031372,-75.083885,Spring 2025,3,4,3,1,0,0
-8358400.03252243,4870697.90979344,226,Bus,19,Northbound,22842,Oxford Av & Roosevelt Blvd - FS,40.032718,-75.084785,Spring 2025,3,9,3,3,0,0
-8358653.17304449,4871002.93633037,227,Bus,19,Northbound,22843,Oxford Av & Frontenac St,40.034816,-75.087059,Spring 2025,6,14,0,2,0,0
-8358451.79608565,4870816.69165249,228,Bus,19,Northbound,22844,Oxford Av & Loretto Av,40.033535,-75.08525,Spring 2025,4,6,2,2,0,0
-8358823.82582388,4871457.73116627,229,Bus,19,Northbound,22845,Oxford Av & Langdon St,40.037944,-75.088592,Spring 2025,10,12,1,0,0,0
-8358811.13540193,4871639.18965951,230,Bus,19,Northbound,22846,Oxford Av & Benner St - FS,40.039192,-75.088478,Spring 2025,0,6,1,5,0,0
-8358722.74772624,4871984.08627128,231,Bus,19,Northbound,22848,Algon Av & Devereaux Av - FS,40.041564,-75.087684,Spring 2025,3,4,1,0,0,0
-8358597.06802113,4872106.66413743,232,Bus,19,Northbound,22849,Algon Av & Robbins Av,40.042407,-75.086555,Spring 2025,1,2,1,2,0,0
-8358435.65475948,4872279.84612589,233,Bus,19,Northbound,22850,Algon Av & Levick St,40.043598,-75.085105,Spring 2025,18,17,4,6,0,0
-8358148.67311221,4872651.95771023,234,Bus,19,Northbound,22851,Magee Av & Algon Av - FS,40.046157,-75.082527,Spring 2025,5,8,4,2,0,0
-8358309.97505437,4872769.01797447,235,Bus,19,Northbound,22852,Magee Av & Pennway St,40.046962,-75.083976,Spring 2025,0,1,0,0,0,0
-8358487.52964219,4872899.458183,236,Bus,19,Northbound,22853,Magee Av & Whitaker Av,40.047859,-75.085571,Spring 2025,7,4,2,2,0,0
-8358369.41966246,4873071.92691319,237,Bus,19,Northbound,22854,Whitaker Av & Unruh Av,40.049045,-75.08451,Spring 2025,6,3,3,2,0,0
-8358239.5098167,4873251.6698624,238,Bus,19,Northbound,22855,Whitaker Av & Knorr St,40.050281,-75.083343,Spring 2025,1,3,1,1,0,0
-8358104.47927437,4873431.99777926,239,Bus,19,Northbound,22856,Whitaker Av & Longshore Av,40.051521,-75.08213,Spring 2025,6,5,2,0,0,0
-8357959.20733888,4873638.94264917,240,Bus,19,Northbound,22857,Whitaker Av & Tyson Av - FS,40.052944,-75.080825,Spring 2025,4,4,2,4,0,0
-8357843.76902693,4873799.2079135,241,Bus,19,Northbound,22858,Whitaker Av & Princeton Av,40.054046,-75.079788,Spring 2025,3,2,0,0,0,0
-8357689.14625422,4874012.85048529,242,Bus,19,Northbound,22859,Whitaker Av & Saint Vincent St - FS,40.055515,-75.078399,Spring 2025,3,1,2,0,0,0
-8350460.72643905,4876387.07992304,243,Bus,19,Northbound,23399,Ashton Rd & Grant Av - FS,40.071838,-75.013465,Spring 2025,3,9,0,4,0,0
-8350628.93018964,4876157.82117103,244,Bus,19,Northbound,23400,Ashton Rd & Grant Av - MBFS,40.070262,-75.014976,Spring 2025,4,6,0,2,0,0
-8350827.6354807,4875900.92965863,245,Bus,19,Northbound,23401,Ashton Rd & Norcross Ln,40.068496,-75.016761,Spring 2025,6,15,1,1,0,0
-8351048.49335044,4875609.13458164,246,Bus,19,Northbound,23402,Ashton Rd & Woodbridge Rd,40.06649,-75.018745,Spring 2025,7,6,1,1,0,0
-8351252.31933808,4875336.69359508,247,Bus,19,Northbound,23404,Ashton Rd & Ryerson Rd,40.064617,-75.020576,Spring 2025,2,2,0,2,0,0
-8356280.17545925,4875784.99608926,248,Bus,19,Northbound,23479,Rhawn St & Meadowbrook Dr - FS,40.067699,-75.065742,Spring 2025,1,2,0,1,0,0
-8356151.04484993,4875685.64631801,249,Bus,19,Northbound,23480,Rhawn St & Dorcas St - MBNS,40.067016,-75.064582,Spring 2025,0,1,0,0,0,0
-8357321.45797613,4874523.1970926,250,Bus,19,Northbound,23810,Whitaker Av & Bleigh Av,40.059024,-75.075096,Spring 2025,4,2,2,2,0,0
-8357191.43681088,4874704.71171153,251,Bus,19,Northbound,23811,Whitaker Av & Shelmire Av,40.060272,-75.073928,Spring 2025,0,2,0,0,0,0
-8357060.6364092,4874886.66600036,252,Bus,19,Northbound,23812,Whitaker Av & Faunce St,40.061523,-75.072753,Spring 2025,2,2,1,2,0,0
-8356995.29186811,4874983.82601363,253,Bus,19,Northbound,23813,Whitaker Av & Napfle Av,40.062191,-75.072166,Spring 2025,2,9,2,2,0,0
-8356736.25141303,4874923.31906712,254,Bus,19,Northbound,23814,Napfle Av & Pennway St - FS,40.061775,-75.069839,Spring 2025,0,0,0,0,0,0
-8356591.87003347,4874812.92393154,255,Bus,19,Northbound,23815,Napfle Av & Algon Av - MBNS,40.061016,-75.068542,Spring 2025,1,1,0,3,0,0
-8356405.85516436,4874958.22687579,256,Bus,19,Northbound,23816,Algon Av & Hartel Av,40.062015,-75.066871,Spring 2025,0,3,2,0,0,0
-8356285.29615583,4875125.7860691,257,Bus,19,Northbound,23817,Algon Av & Langdon St,40.063167,-75.065788,Spring 2025,2,2,0,1,0,0
-8356142.58456863,4875321.12992079,258,Bus,19,Northbound,23818,Algon Av & Loney St,40.06451,-75.064506,Spring 2025,2,0,0,0,0,0
-8355884.43466948,4875680.70067461,259,Bus,19,Northbound,23819,Algon Av & Stanwood St,40.066982,-75.062187,Spring 2025,5,2,3,2,0,0
-8355764.65489739,4875840.41711191,260,Bus,19,Northbound,23820,Algon Av & Solly Av,40.06808,-75.061111,Spring 2025,2,3,0,1,0,0
-8355609.25288824,4876037.95703177,261,Bus,19,Northbound,23821,Algon Av & Hoffnagle St,40.069438,-75.059715,Spring 2025,2,2,0,0,0,0
-8355477.56193063,4876205.09808102,262,Bus,19,Northbound,23822,Algon Av & Strahle St,40.070587,-75.058532,Spring 2025,5,1,3,0,0,0
-8355399.41564809,4876304.88946857,263,Bus,19,Northbound,23823,Algon Av & Fox Chase Rd,40.071273,-75.05783,Spring 2025,5,5,0,0,0,0
-8355227.87231278,4876520.18626452,264,Bus,19,Northbound,23824,Algon Av & Krewstown Rd,40.072753,-75.056289,Spring 2025,1,4,0,1,0,0
-8354785.37733688,4877542.47348088,265,Bus,19,Northbound,23825,Krewstown Rd & Rising Sun Av,40.07978,-75.052314,Spring 2025,0,1,0,0,0,0
-8354490.71464475,4877929.33203295,266,Bus,19,Northbound,23826,Krewstown Rd & Bloomfield Av,40.082439,-75.049667,Spring 2025,5,14,0,8,0,0
-8354242.69481926,4878268.48221414,267,Bus,19,Northbound,23827,Krewstown Rd & Surrey Rd - FS,40.08477,-75.047439,Spring 2025,6,3,0,1,0,0
-8353877.45556997,4878768.57168466,268,Bus,19,Northbound,23828,Krewstown Rd & Grant Av,40.088207,-75.044158,Spring 2025,5,12,1,1,0,0
-8353155.54867217,4878381.09835593,269,Bus,19,Northbound,23829,Grant Av & Bustleton Av,40.085544,-75.037673,Spring 2025,19,11,2,3,0,0
-8352917.77023984,4878211.88362892,270,Bus,19,Northbound,23830,Grant Av & Dungan Rd,40.084381,-75.035537,Spring 2025,1,0,1,0,0,0
-8352735.20627494,4878087.48427612,271,Bus,19,Northbound,23831,Grant Av & Hoff St,40.083526,-75.033897,Spring 2025,2,3,0,1,0,0
-8352551.75175411,4877964.25043429,272,Bus,19,Northbound,23832,Grant Av & Clark St,40.082679,-75.032249,Spring 2025,2,2,0,0,0,0
-8352364.84632907,4877834.90747248,273,Bus,19,Northbound,23833,Grant Av & Evans St,40.08179,-75.03057,Spring 2025,0,2,0,1,0,0
-8352208.66508349,4877717.35087999,274,Bus,19,Northbound,23834,Grant Av & Roosevelt Blvd,40.080982,-75.029167,Spring 2025,18,11,1,5,0,0
-8352099.01538505,4877635.73134364,275,Bus,19,Northbound,23835,Grant Av & Roosevelt Blvd - FS,40.080421,-75.028182,Spring 2025,4,20,1,7,0,0
-8351840.08624947,4877447.61614985,276,Bus,19,Northbound,23836,Grant Av & Blue Grass Rd - 1,40.079128,-75.025856,Spring 2025,13,19,9,7,0,0
-8350857.35778475,4876737.2334458,277,Bus,19,Northbound,23837,Grant Av & Blue Grass Rd - 3 MBFS,40.074245,-75.017028,Spring 2025,1,12,1,2,0,0
-8351398.37051,4875067.02366832,278,Bus,19,Northbound,23839,Willits Rd & Ashton Rd - MBFS,40.062763,-75.021888,Spring 2025,7,12,2,3,0,0
-8351019.66160232,4874655.26028394,279,Bus,19,Northbound,23840,Willits Rd & Convent Av,40.059932,-75.018486,Spring 2025,0,7,0,3,0,0
-8350459.94720261,4874188.10191465,280,Bus,19,Northbound,23842,Willits Rd & Holme Av,40.05672,-75.013458,Spring 2025,1,14,0,2,0,0
-8349936.74559589,4874393.46271951,281,Bus,19,Northbound,23844,Academy Rd & Holme Av - FS,40.058132,-75.008758,Spring 2025,3,5,1,4,0,0
-8349974.14894479,4874632.57088797,282,Bus,19,Northbound,23845,Academy Rd & Outlook Av,40.059776,-75.009094,Spring 2025,0,0,0,1,0,0
-8349862.05021756,4874698.02120984,283,Bus,19,Northbound,23846,Outlook Av & Lansford St,40.060226,-75.008087,Spring 2025,0,1,0,0,0,0
-8349684.49562975,4874882.7388941,284,Bus,19,Northbound,23847,Outlook Av & Convent Av,40.061496,-75.006492,Spring 2025,2,1,1,0,0,0
-8349507.05236142,4875064.26009865,285,Bus,19,Northbound,23848,Outlook Av & Aubrey Av,40.062744,-75.004898,Spring 2025,1,2,0,0,0,0
-8349332.0581219,4875240.11193639,286,Bus,19,Northbound,23849,Outlook Av & Holyoke Rd - FS,40.063953,-75.003326,Spring 2025,1,3,0,0,0,0
-8349183.44660169,4875413.20322785,287,Bus,19,Northbound,23850,Outlook Av & Primrose Rd,40.065143,-75.001991,Spring 2025,1,1,0,0,0,0
-8348930.30607962,4875229.05746923,288,Bus,19,Northbound,23851,Primrose Rd & Fordham Rd,40.063877,-74.999717,Spring 2025,1,3,0,0,0,0
-8348362.13139861,4874949.9362601,289,Bus,19,Northbound,23852,Grant Av & Leon St,40.061958,-74.994613,Spring 2025,0,0,0,0,0,0
-8350236.52898459,4874167.59515577,290,Bus,19,Northbound,25905,Holme Av & Willits Rd - MBFS,40.056579,-75.011451,Spring 2025,0,5,0,0,0,0
-8354105.10392864,4878490.51474845,291,Bus,19,Northbound,27959,Gregg St & Krewstown Rd,40.086296,-75.046203,Spring 2025,0,1,0,1,0,0
-8357088.68892088,4875060.91472586,292,Bus,19,Northbound,30039,Napfle Av & Dungan Rd,40.062721,-75.073005,Spring 2025,2,0,0,0,0,0
-8356948.53768197,4875291.74809765,293,Bus,19,Northbound,30040,Dungan Rd & Lorna Dr,40.064308,-75.071746,Spring 2025,0,5,0,1,0,0
-8356721.77987923,4875586.8793776,294,Bus,19,Northbound,30041,Dungan Rd & Lorna Dr - MBFS,40.066337,-75.069709,Spring 2025,1,1,0,0,0,0
-8356460.17907586,4875924.78566803,295,Bus,19,Northbound,30042,Dungan Rd & Rhawn St,40.06866,-75.067359,Spring 2025,2,9,0,1,0,0
-8357476.85998528,4874302.99872444,296,Bus,19,Northbound,30288,Whitaker Av & Cottman Av - FS,40.05751,-75.076492,Spring 2025,33,21,6,6,0,0
-8357492.11075552,4869924.33594524,297,Bus,19,Northbound,31105,Cheltenham Av & Penn St,40.027397,-75.076629,Spring 2025,3,0,2,0,0,0
-8353464.7942176,4878571.99582595,298,Bus,19,Northbound,31106,Grant Av & Welsh Rd - FS,40.086856,-75.040451,Spring 2025,3,9,3,5,0,0
-8351395.81016171,4875098.00479164,299,Bus,19,Southbound,398,Willits Rd & Ashton Rd,40.062976,-75.021865,Spring 2025,8,8,0,2,0,0
-8351581.82503083,4877299.94895283,300,Bus,19,Southbound,399,Grant Av & Blue Grass Rd - 1,40.078113,-75.023536,Spring 2025,4,5,3,4,0,0
-8353463.01310574,4878601.96939096,301,Bus,19,Southbound,400,Grant Av & Welsh Rd,40.087062,-75.040435,Spring 2025,11,4,5,3,0,0
-8354094.08329905,4878498.22632171,302,Bus,19,Southbound,401,Krewstown Rd & Gregg St,40.086349,-75.046104,Spring 2025,6,10,3,0,0,0
-8355979.50151462,4875577.42456748,303,Bus,19,Southbound,402,Algon Av & Rhawn St,40.066272,-75.063041,Spring 2025,8,4,2,4,0,0
-8357535.41403743,4874251.36771474,304,Bus,19,Southbound,403,Whitaker Av & Cottman Av - FS,40.057155,-75.077018,Spring 2025,24,31,5,6,0,0
-8358755.92093449,4871199.36210339,305,Bus,19,Southbound,404,Oxford Av & Summerdale Av,40.036167,-75.087982,Spring 2025,28,10,3,3,0,0
-8358872.24980237,4872323.03303761,306,Bus,19,Southbound,478,Martins Mill Rd & Oxford Av - FS,40.043895,-75.089027,Spring 2025,23,6,8,1,0,0
-8347159.54693958,4873850.25483495,307,Bus,19,Southbound,1093,Grant Av & James St - FS,40.054397,-74.98381,Spring 2025,10,2,0,0,0,0
-8347172.23736153,4873839.78365014,308,Bus,19,Southbound,1102,Grant Av & James St - Torresdale Station,40.054325,-74.983924,Spring 2025,32,0,9,0,0,0
-8348890.45370192,4875284.4753826,309,Bus,19,Southbound,1229,Fordham Rd & Grant Av - FS,40.064258,-74.999359,Spring 2025,0,0,1,0,0,0
-8354786.2678928,4877561.96881175,310,Bus,19,Southbound,1492,Krewstown Rd & Rising Sun Av,40.079914,-75.052322,Spring 2025,2,1,0,0,0,0
-8357586.39836422,4869328.1684451,311,Bus,19,Southbound,21204,Frankford Transit Center - Main Dropoff,40.023296,-75.077476,Spring 2025,0,225,0,48,0,0
-8347079.73086468,4873721.54728938,312,Bus,19,Southbound,22561,Grant Av & State Rd - FS,40.053512,-74.983093,Spring 2025,0,0,3,0,0,0
-8347596.9212189,4874388.37227986,313,Bus,19,Southbound,22562,Grant Av & Torresdale Av,40.058097,-74.987739,Spring 2025,11,0,1,0,0,0
-8357716.30820997,4873997.28888991,314,Bus,19,Southbound,22984,Whitaker Av & Saint Vincent St,40.055408,-75.078643,Spring 2025,4,2,0,1,0,0
-8357845.43881929,4873819.13217919,315,Bus,19,Southbound,22985,Whitaker Av & Princeton Av,40.054183,-75.079803,Spring 2025,4,4,0,1,0,0
-8358005.07096909,4873597.78601672,316,Bus,19,Southbound,22986,Whitaker Av & Tyson Av - FS,40.052661,-75.081237,Spring 2025,3,6,1,2,0,0
-8358108.70941502,4873454.10271737,317,Bus,19,Southbound,22987,Whitaker Av & Longshore Av,40.051673,-75.082168,Spring 2025,6,4,1,0,0,0
-8358240.40037263,4873271.15675338,318,Bus,19,Southbound,22988,Whitaker Av & Knorr St,40.050415,-75.083351,Spring 2025,5,1,1,0,0,0
-8358370.31021838,4873091.41345081,319,Bus,19,Southbound,22989,Whitaker Av & Unruh St,40.049179,-75.084518,Spring 2025,5,4,1,1,0,0
-8358498.55027178,4872915.45431334,320,Bus,19,Southbound,22990,Whitaker Av & Magee Av,40.047969,-75.08567,Spring 2025,4,5,3,1,0,0
-8358660.74276986,4872979.29367243,321,Bus,19,Southbound,22991,Oxford Av & Magee Av - FS,40.048408,-75.087127,Spring 2025,4,1,0,2,0,0
-8358720.18737795,4872794.0297878,322,Bus,19,Southbound,22992,Oxford Av & Hellerman St,40.047134,-75.087661,Spring 2025,3,2,1,0,0,0
-8358795.7733122,4872570.96154149,323,Bus,19,Southbound,22993,Oxford Av & Levick St,40.0456,-75.08834,Spring 2025,18,32,2,5,0,0
-8358790.65261562,4871935.3754404,324,Bus,19,Southbound,22995,Oxford Av & Algon Av,40.041229,-75.088294,Spring 2025,10,2,3,0,0,0
-8358825.49561624,4871650.82172747,325,Bus,19,Southbound,22997,Oxford Av & Benner St,40.039272,-75.088607,Spring 2025,7,2,0,2,0,0
-8358825.49561624,4871412.22166444,326,Bus,19,Southbound,23000,Oxford Av & Langdon St - FS,40.037631,-75.088607,Spring 2025,14,15,1,1,0,0
-8358673.54451131,4871006.86189987,327,Bus,19,Southbound,23002,Oxford Av & Frontenac St,40.034843,-75.087242,Spring 2025,13,2,5,0,0,0
-8358476.5090126,4870820.47175949,328,Bus,19,Southbound,23006,Oxford Av & Loretto Av,40.033561,-75.085472,Spring 2025,12,6,1,3,0,0
-8358410.27391558,4870651.38607487,329,Bus,19,Southbound,23007,Oxford Av & Roosevelt Blvd,40.032398,-75.084877,Spring 2025,5,10,2,2,0,0
-8358309.97505437,4870486.66478841,330,Bus,19,Southbound,23008,Cheltenham Av & Roosevelt Bvld - FS,40.031265,-75.083976,Spring 2025,4,2,0,0,0,0
-8358170.71437139,4870390.13037235,331,Bus,19,Southbound,23011,Cheltenham Av & Large St,40.030601,-75.082725,Spring 2025,6,5,2,1,0,0
-8357971.1185244,4870242.56828446,332,Bus,19,Southbound,23012,Cheltenham Av & Horrocks St,40.029586,-75.080932,Spring 2025,4,3,0,0,0,0
-8357774.97358162,4870095.15377045,333,Bus,19,Southbound,23013,Cheltenham Av & Oakland St,40.028572,-75.07917,Spring 2025,7,4,1,4,0,0
-8357640.72227572,4869996.44251513,334,Bus,19,Southbound,23014,Cheltenham Av & Saul St,40.027893,-75.077964,Spring 2025,1,1,0,0,0,0
-8351253.98913044,4875313.27536548,335,Bus,19,Southbound,23348,Ashton Rd & Ryerson Rd,40.064456,-75.020591,Spring 2025,2,2,1,0,0,0
-8351047.60279451,4875590.22492795,336,Bus,19,Southbound,23350,Ashton Rd & Woodbridge Rd,40.06636,-75.018737,Spring 2025,9,5,2,1,0,0
-8350807.26401389,4875905.43902186,337,Bus,19,Southbound,23351,Ashton Rd & Norcross Ln - FS,40.068527,-75.016578,Spring 2025,16,4,1,0,0,0
-8350613.6794194,4876156.8029016,338,Bus,19,Southbound,23352,Ashton Rd & Saxton Rd - MBFS,40.070255,-75.014839,Spring 2025,6,1,2,0,0,0
-8350435.23427566,4876389.84386168,339,Bus,19,Southbound,23353,Ashton Rd & Grant Av,40.071857,-75.013236,Spring 2025,13,1,4,0,0,0
-8356317.57880816,4875836.63509001,340,Bus,19,Southbound,23524,Rhawn St & Meadowbrook Dr - FS,40.068054,-75.066078,Spring 2025,1,0,0,1,0,0
-8348339.19958351,4874966.51749842,341,Bus,19,Southbound,23854,Grant Av & Leon St,40.062072,-74.994407,Spring 2025,1,0,0,0,0,0
-8350993.278883,4874652.49682909,342,Bus,19,Southbound,23856,Willits Rd & Convent Av,40.059913,-75.018249,Spring 2025,5,2,5,0,0,0
-8350849.78805937,4876767.78336377,343,Bus,19,Southbound,23857,Grant Av & Ashton Rd - MBFS,40.074455,-75.01696,Spring 2025,9,1,0,1,0,0
-8351971.66588759,4877589.61151083,344,Bus,19,Southbound,23858,Grant Av & Roosevelt Blvd - MBNS,40.080104,-75.027038,Spring 2025,4,15,1,7,0,0
-8352212.00466821,4877766.09013951,345,Bus,19,Southbound,23859,Grant Av & Roosevelt Blvd - FS,40.081317,-75.029197,Spring 2025,28,9,6,2,0,0
-8352522.02945007,4877980.98221189,346,Bus,19,Southbound,23860,Grant Av & Clark St,40.082794,-75.031982,Spring 2025,3,3,0,0,0,0
-8352705.4839709,4878105.23473149,347,Bus,19,Southbound,23861,Grant Av & Hoff St,40.083648,-75.03363,Spring 2025,2,1,0,0,0,0
-8352887.26869936,4878228.47032733,348,Bus,19,Southbound,23862,Grant Av & Dungan Rd,40.084495,-75.035263,Spring 2025,2,3,0,0,0,0
-8353033.31987128,4878327.26360645,349,Bus,19,Southbound,23863,Grant Av & Bustleton Av - MBNS,40.085174,-75.036575,Spring 2025,6,26,5,3,0,0
-8353893.59689613,4878778.02954085,350,Bus,19,Southbound,23864,Krewstown Rd & Grant Av - FS,40.088272,-75.044303,Spring 2025,7,2,1,0,0,0
-8354491.49388118,4877949.26460531,351,Bus,19,Southbound,23865,Krewstown Rd & Bloomfield Av,40.082576,-75.049674,Spring 2025,14,4,5,0,0,0
-8355218.52147555,4876557.427266,352,Bus,19,Southbound,23866,Algon Av & Krewstown Rd - FS,40.073009,-75.056205,Spring 2025,5,2,0,0,0,0
-8355401.19675994,4876324.38236424,353,Bus,19,Southbound,23867,Algon Av & Fox Chase Rd,40.071407,-75.057846,Spring 2025,2,4,0,1,0,0
-8355508.1747906,4876188.36930247,354,Bus,19,Southbound,23868,Algon Av & Dorcas St,40.070472,-75.058807,Spring 2025,1,4,0,0,0,0
-8355635.52428806,4876030.82923421,355,Bus,19,Southbound,23869,Algon Av & Hoffnagle St - FS,40.069389,-75.059951,Spring 2025,3,1,2,0,0,0
-8355766.32468975,4875859.32724306,356,Bus,19,Southbound,23870,Algon Av & Solly Av,40.06821,-75.061126,Spring 2025,2,0,0,1,0,0
-8355901.35523208,4875678.51877389,357,Bus,19,Southbound,23871,Algon Av & Stanwood St - FS,40.066967,-75.062339,Spring 2025,4,4,1,1,0,0
-8356174.86722096,4875301.63899868,358,Bus,19,Southbound,23872,Algon Av & Griffith St,40.064376,-75.064796,Spring 2025,0,0,0,0,0,0
-8356406.74572028,4874978.15347171,359,Bus,19,Southbound,23874,Algon Av & Hartel Av,40.062152,-75.066879,Spring 2025,2,0,2,1,0,0
-8356528.97452117,4874812.34214224,360,Bus,19,Southbound,23875,Algon Av & Napfle Av,40.061012,-75.067977,Spring 2025,1,1,0,0,0,0
-8356738.81176132,4874941.64565134,361,Bus,19,Southbound,23876,Napfle Av & Pennway St,40.061901,-75.069862,Spring 2025,0,0,0,0,0,0
-8356968.90914879,4875021.49759242,362,Bus,19,Southbound,23877,Napfle Av & Whitaker Av,40.06245,-75.071929,Spring 2025,1,2,0,0,0,0
-8357061.52696513,4874906.59245238,363,Bus,19,Southbound,23878,Whitaker Av & Faunce St,40.06166,-75.072761,Spring 2025,6,3,1,0,0,0
-8357192.32736681,4874724.05601359,364,Bus,19,Southbound,23879,Whitaker Av & Shelmire Av,40.060405,-75.073936,Spring 2025,3,0,0,0,0,0
-8357322.23721256,4874542.68648371,365,Bus,19,Southbound,23880,Whitaker Av & Bleigh Av,40.059158,-75.075103,Spring 2025,3,1,0,1,0,0
-8349330.38832953,4875261.78454596,366,Bus,19,Southbound,23882,Outlook Av & Holyoke Rd,40.064102,-75.003311,Spring 2025,6,1,0,0,0,0
-8349505.27124957,4875086.36867763,367,Bus,19,Southbound,23883,Outlook Av & Aubrey Av,40.062896,-75.004882,Spring 2025,1,4,0,0,0,0
-8349682.82583739,4874904.9925168,368,Bus,19,Southbound,23884,Outlook Av & Convent Av,40.061649,-75.006477,Spring 2025,4,0,0,0,0,0
-8349971.5885965,4874649.1515953,369,Bus,19,Southbound,23885,Outlook Av & Academy Rd,40.05989,-75.009071,Spring 2025,2,0,1,0,0,0
-8349945.20587718,4874359.57498476,370,Bus,19,Southbound,23886,Academy Rd & Holme Av,40.057899,-75.008834,Spring 2025,6,1,0,0,0,0
-8350204.24633226,4874213.11730917,371,Bus,19,Southbound,23887,Holme Av & Dean Plz,40.056892,-75.011161,Spring 2025,1,1,0,1,0,0
-8350421.65329778,4874180.97544754,372,Bus,19,Southbound,23888,Holme Av & Willits Rd,40.056671,-75.013114,Spring 2025,2,0,0,0,0,0
-8350561.80453669,4874290.78178518,373,Bus,19,Southbound,23889,Willits Rd & Exeter Rd,40.057426,-75.014373,Spring 2025,7,2,2,2,0,0
-8356131.56393904,4875686.80999917,374,Bus,19,Southbound,25996,Rhawn St & Dorcas St - MBFS,40.067024,-75.064407,Spring 2025,2,0,0,0,0,0
-8351070.53460961,4876932.60907025,375,Bus,19,Southbound,27960,Grant Av & Blue Grass Rd - MBNS,40.075588,-75.018943,Spring 2025,4,1,0,0,0,0
-8351749.13822549,4877423.75647335,376,Bus,19,Southbound,27961,Grant Av & Blue Grass Rd - 2,40.078964,-75.025039,Spring 2025,9,8,4,2,0,0
-8354257.9455895,4878270.66468534,377,Bus,19,Southbound,27962,Krewstown Rd & Surrey Rd,40.084785,-75.047576,Spring 2025,7,0,1,0,0,0
-8356490.79193583,4875906.45726545,378,Bus,19,Southbound,27963,Dungan Rd & Rhawn St - FS,40.068534,-75.067634,Spring 2025,5,6,1,1,0,0
-8356783.00559916,4875528.69607379,379,Bus,19,Southbound,27964,Dungan Rd & Lorna Dr,40.065937,-75.070259,Spring 2025,3,1,1,1,0,0
-8357016.55389085,4875011.46152076,380,Bus,19,Southbound,27965,Napfle Av & Whitaker Av,40.062381,-75.072357,Spring 2025,4,1,0,0,0,0
-8356949.4282379,4875311.09354566,381,Bus,19,Southbound,30043,Dungan Rd & Lorna Dr - FS,40.064441,-75.071754,Spring 2025,4,0,0,0,0,0
-8357122.64136557,4875084.76871302,382,Bus,19,Southbound,30044,Dungan Rd & Napfle Av,40.062885,-75.07331,Spring 2025,1,1,0,0,0,0
-8356314.12790394,4875107.45914434,383,Bus,19,Southbound,30046,Algon Av & Borbeck Av - FS,40.063041,-75.066047,Spring 2025,2,0,1,0,0,0
-8347951.13983861,4874801.1427051,384,Bus,19,Southbound,31107,Grant Av & Frankford Av - FS,40.060935,-74.990921,Spring 2025,19,2,5,0,0,0
-8357522.72361548,4869920.41080426,385,Bus,19,Southbound,31108,Cheltenham Av & Penn St,40.02737,-75.076904,Spring 2025,1,1,0,0,0,0
-8349169.86562381,4875426.00337618,386,Bus,19,Southbound,31441,Primrose Rd & Outlook Av,40.065231,-75.001869,Spring 2025,3,3,0,0,0,0
-8357391.9232138,4869876.07135669,387,Bus,19,Southbound,32101,Cheltenham Av & Bustleton Av,40.027065,-75.075729,Spring 2025,1,5,1,0,0,0
-8354934.87941301,4872426.85688815,388,Bus,20,Northbound,8,Roosevelt Blvd & Cottman Av - FS,40.044609,-75.053657,Spring 2025,166,81,111,73,79,52
-8353894.48745206,4874446.11256303,389,Bus,20,Northbound,9,Roosevelt Blvd & Holme Av,40.058494,-75.044311,Spring 2025,58,39,29,24,29,22
-8348924.40614661,4878547.55143232,390,Bus,20,Northbound,12,Decatur Rd & Drummond Rd - MBNS,40.086688,-74.999664,Spring 2025,0,0,0,0,0,0
-8357159.15415855,4870290.25313282,391,Bus,20,Northbound,326,Bustleton Av & Comly St - FS,40.029914,-75.073638,Spring 2025,6,6,4,0,5,1
-8357595.74920144,4869373.66838345,392,Bus,20,Northbound,340,Frankford Transit Center - Rts 20 & 50,40.023609,-75.07756,Spring 2025,869,0,627,0,490,0
-8349789.0246316,4875981.95304625,393,Bus,20,Northbound,406,Academy Rd & Grant Av,40.069053,-75.007431,Spring 2025,18,56,10,28,5,22
-8347851.73153333,4876891.0023225,394,Bus,20,Northbound,407,Morrell Av & Kayford Circle - 2,40.075302,-74.990028,Spring 2025,1,2,0,4,0,2
-8347872.99355607,4878149.61100907,395,Bus,20,Northbound,408,Academy Rd & Chalfont Dr,40.083953,-74.990219,Spring 2025,2,10,0,4,0,3
-8344770.40802817,4879533.37765053,396,Bus,20,Northbound,409,Mechanicsville Rd & Knights Rd,40.093463,-74.962348,Spring 2025,0,40,0,52,0,36
-8345006.51666814,4878422.71136278,397,Bus,20,Northbound,410,Philadelphia Mills & Marshalls,40.08583,-74.964469,Spring 2025,0,158,1,189,1,116
-8345595.95337189,4880610.40492203,398,Bus,20,Northbound,979,Medford Rd & Atmore Rd - FS,40.100864,-74.969764,Spring 2025,0,1,0,1,0,0
-8357007.20305362,4870689.62274009,399,Bus,20,Northbound,1107,Bustleton Av & Devereux Av,40.032661,-75.072273,Spring 2025,14,17,12,7,12,7
-8351114.72844746,4874133.27188125,400,Bus,20,Northbound,1112,Holme Av & Pennypack St,40.056343,-75.01934,Spring 2025,0,1,0,0,0,0
-8345720.85384056,4879976.92232359,401,Bus,20,Northbound,1475,Academy Rd & Torrey Rd,40.096511,-74.970886,Spring 2025,0,0,0,0,0,0
-8344721.20481324,4879505.14746122,402,Bus,20,Northbound,1522,Mechanicsville Rd & Knights Rd,40.093269,-74.961906,Spring 2025,0,0,1,1,0,0
-8344286.3908822,4880146.89483876,403,Bus,20,Northbound,17061,Knights Rd & Plum Av,40.097679,-74.958,Spring 2025,0,0,0,1,0,0
-8349092.49857771,4878066.9694452,404,Bus,20,Northbound,20423,Red Lion Rd & Decatur Rd - MBNS,40.083385,-75.001174,Spring 2025,0,4,0,0,0,0
-8345161.13944085,4878565.4482146,405,Bus,20,Northbound,21117,Phila Mills & Liberty Bell - MBFS,40.086811,-74.965858,Spring 2025,19,17,14,18,16,19
-8345153.45839599,4878780.79414667,406,Bus,20,Northbound,21118,Franklin Mills & Liberty Bell Blvd,40.088291,-74.965789,Spring 2025,1,41,2,34,5,63
-8343853.24674352,4880674.73048476,407,Bus,20,Northbound,21127,Knights Rd & Dunks Ferry Rd - FS,40.101306,-74.954109,Spring 2025,0,2,0,1,0,0
-8343647.63964403,4880931.30922865,408,Bus,20,Northbound,21128,Knights Rd & McKinley Av - FS,40.103069,-74.952262,Spring 2025,0,0,0,0,0,0
-8357351.95951661,4869887.70135654,409,Bus,20,Northbound,22335,Bustleton Av & Cheltenham Av - FS,40.027145,-75.07537,Spring 2025,12,0,8,1,7,1
-8357250.88141897,4870042.96316105,410,Bus,20,Northbound,22336,Bustleton Av & Van Kirk St,40.028213,-75.074462,Spring 2025,6,0,7,1,5,0
-8357090.35871324,4870484.92018219,411,Bus,20,Northbound,22337,Bustleton Av & Benner St,40.031253,-75.07302,Spring 2025,6,6,4,3,0,4
-8351838.30513762,4874131.52663318,412,Bus,20,Northbound,22366,Holme Av & Arthur St,40.056331,-75.02584,Spring 2025,0,2,0,0,0,0
-8351403.49120658,4874136.03519132,413,Bus,20,Northbound,22367,Holme Av & Longford St - FS,40.056362,-75.021934,Spring 2025,0,0,0,0,0,0
-8356714.98939029,4871017.91165939,414,Bus,20,Northbound,22481,Roosevelt Blvd & Levick St,40.034919,-75.069648,Spring 2025,15,11,12,10,13,10
-8356429.67753539,4871103.98389192,415,Bus,20,Northbound,22482,Roosevelt Blvd & Hellerman St,40.035511,-75.067085,Spring 2025,5,6,4,4,3,9
-8356173.1974286,4871181.04243671,416,Bus,20,Northbound,22483,Roosevelt Blvd & Magee Av,40.036041,-75.064781,Spring 2025,43,26,30,24,16,12
-8355927.7379514,4871274.24045801,417,Bus,20,Northbound,22484,Roosevelt Blvd & Unruh Av,40.036682,-75.062576,Spring 2025,27,14,23,8,23,13
-8355609.25288824,4871604.14813725,418,Bus,20,Northbound,22486,Roosevelt Blvd & Longshore Av,40.038951,-75.059715,Spring 2025,14,13,13,7,11,5
-8355473.33178998,4871771.21443248,419,Bus,20,Northbound,22487,Roosevelt Blvd & Tyson Av,40.0401,-75.058494,Spring 2025,15,17,5,16,5,9
-8355238.89294237,4872059.55218038,420,Bus,20,Northbound,22488,Roosevelt Blvd & Friendship St,40.042083,-75.056388,Spring 2025,9,27,8,27,11,15
-8354759.10593705,4872642.06945308,421,Bus,20,Northbound,22490,Roosevelt Blvd & Guilford St,40.046089,-75.052078,Spring 2025,6,4,2,4,0,1
-8354606.1529567,4873216.18636827,422,Bus,20,Northbound,22491,Roosevelt Blvd & Revere St - MBNS,40.050037,-75.050704,Spring 2025,10,18,5,11,5,8
-8354585.00225345,4873475.18971085,423,Bus,20,Northbound,22494,Roosevelt Blvd & Hartel Av,40.051818,-75.050514,Spring 2025,2,1,1,3,1,3
-8354409.117458,4873774.77529199,424,Bus,20,Northbound,22495,Roosevelt Blvd & Ryan Av,40.053878,-75.048934,Spring 2025,9,19,8,26,8,17
-8354079.61176525,4874200.31872734,425,Bus,20,Northbound,22498,Roosevelt Blvd & Rhawn St - FS,40.056804,-75.045974,Spring 2025,44,27,15,22,14,14
-8354004.025831,4874305.76208184,426,Bus,20,Northbound,22499,Roosevelt Blvd & Stanwood St,40.057529,-75.045295,Spring 2025,2,3,4,3,2,0
-8348568.51773454,4877995.96808886,427,Bus,20,Northbound,22552,Drummond Rd & Red Lion Rd - MBNS,40.082897,-74.996467,Spring 2025,0,0,0,0,0,0
-8348796.94532965,4877805.51819357,428,Bus,20,Northbound,22553,Drummond Rd & Red Lion Rd,40.081588,-74.998519,Spring 2025,0,0,0,0,0,0
-8347679.29764209,4876866.56207661,429,Bus,20,Northbound,22569,Keswick Rd & Ashfield Ln,40.075134,-74.988479,Spring 2025,3,7,2,9,2,5
-8347585.90058931,4876945.84761755,430,Bus,20,Northbound,22570,Keswick Rd & Red Lion Rd,40.075679,-74.98764,Spring 2025,9,35,5,12,5,7
-8345066.85183215,4879147.03848807,431,Bus,20,Northbound,22585,Franklin Mills & Design Center Dr,40.090808,-74.965011,Spring 2025,1,39,2,37,1,32
-8348576.19877941,4878859.51298366,432,Bus,20,Northbound,22887,Decatur Rd & Drummond Rd,40.088832,-74.996536,Spring 2025,0,0,0,0,0,0
-8348042.75577953,4878026.95837238,433,Bus,20,Northbound,22941,Academy Rd & Amity Rd,40.08311,-74.991744,Spring 2025,0,4,0,2,1,4
-8356913.80600084,4870901.45362873,434,Bus,20,Northbound,23039,Bustleton Av & Robbins Av,40.034118,-75.071434,Spring 2025,19,21,17,17,10,11
-8353776.48879182,4874405.67978535,435,Bus,20,Northbound,23335,Holme Av & Fairfield St,40.058216,-75.043251,Spring 2025,9,9,4,9,6,7
-8353587.02301849,4874329.61425141,436,Bus,20,Northbound,23336,Holme Av & Revere St,40.057693,-75.041549,Spring 2025,5,14,3,6,8,4
-8353249.83628087,4874429.5321954,437,Bus,20,Northbound,23337,Holme Av & Revere St - MBFS,40.05838,-75.03852,Spring 2025,0,0,0,2,0,0
-8352809.12241682,4874243.07769036,438,Bus,20,Northbound,23338,Holme Av & Winchester Av,40.057098,-75.034561,Spring 2025,5,19,1,8,0,4
-8352434.5323303,4874158.14169966,439,Bus,20,Northbound,23339,Holme Av & Stamford St,40.056514,-75.031196,Spring 2025,4,13,0,3,0,3
-8352232.37613502,4874138.79850217,440,Bus,20,Northbound,23340,Holme Av & Holme Cir,40.056381,-75.02938,Spring 2025,9,53,4,26,0,23
-8352090.55510375,4874224.75239791,441,Bus,20,Northbound,23341,Ashton Rd & Holme Cir - FS,40.056972,-75.028106,Spring 2025,21,18,6,17,8,7
-8351959.75470207,4874397.82595559,442,Bus,20,Northbound,23342,Ashton Rd & Jenny Pl,40.058162,-75.026931,Spring 2025,0,3,1,0,2,0
-8351866.3576493,4874517.08848536,443,Bus,20,Northbound,23343,Ashton Rd & Jenny Pl - MBFS,40.058982,-75.026092,Spring 2025,2,12,0,4,0,3
-8351683.7936844,4874747.90918992,444,Bus,20,Northbound,23344,Ashton Rd & Tolbut St - FS,40.060569,-75.024452,Spring 2025,5,7,4,4,0,0
-8351607.31719422,4874848.41314271,445,Bus,20,Northbound,23345,Ashton Rd & Maxwell St,40.06126,-75.023765,Spring 2025,2,4,0,4,0,1
-8351466.38671888,4875033.13363027,446,Bus,20,Northbound,23346,Ashton Rd & Tremont St,40.06253,-75.022499,Spring 2025,24,57,15,33,6,33
-8349181.77680933,4876741.16128711,447,Bus,20,Northbound,23355,Academy Rd & Glenn St,40.074272,-75.001976,Spring 2025,1,2,0,0,0,2
-8349129.01137069,4876849.83218116,448,Bus,20,Northbound,23356,Academy Rd & President St,40.075019,-75.001502,Spring 2025,2,3,2,2,0,3
-8349060.32724487,4876949.77554157,449,Bus,20,Northbound,23357,Academy Rd & Avalon St,40.075706,-75.000885,Spring 2025,0,3,0,2,0,0
-8348924.40614661,4877171.19659211,450,Bus,20,Northbound,23358,Academy Rd & Avalon St - MBFS,40.077228,-74.999664,Spring 2025,0,11,0,1,2,6
-8348797.83588558,4877364.3985031,451,Bus,20,Northbound,23359,Academy Rd & Morrell Av,40.078556,-74.998527,Spring 2025,3,47,4,23,0,21
-8348660.24499496,4877549.16590357,452,Bus,20,Northbound,23360,Academy Rd & Red Lion Rd,40.079826,-74.997291,Spring 2025,0,17,0,7,0,13
-8348840.24861157,4877803.33582485,453,Bus,20,Northbound,23361,Red Lion Rd & Drummond Rd - FS Route 50,40.081573,-74.998908,Spring 2025,0,0,0,0,0,0
-8346944.70032234,4879331.98465864,454,Bus,20,Northbound,23363,Academy Rd & Newberry Rd,40.092079,-74.98188,Spring 2025,5,17,5,13,3,5
-8346756.12510494,4879529.01215207,455,Bus,20,Northbound,23364,Academy Rd & Woodhaven Rd,40.093433,-74.980186,Spring 2025,9,43,10,23,10,15
-8346541.27848771,4879738.26720915,456,Bus,20,Northbound,23365,Academy Rd & Fairdale Rd,40.094871,-74.978256,Spring 2025,7,15,2,5,3,9
-8346390.88585565,4879878.11258768,457,Bus,20,Northbound,23366,Academy Rd & Byberry Rd,40.095832,-74.976905,Spring 2025,8,61,5,36,3,32
-8344073.99329377,4880434.45772339,458,Bus,20,Northbound,23370,Knights Rd & Lakewood Av,40.099655,-74.956092,Spring 2025,0,0,0,0,0,0
-8343489.67728659,4881279.87693735,459,Bus,20,Northbound,23371,Street Rd & Knights Rd - FS,40.105464,-74.950843,Spring 2025,0,0,0,0,0,0
-8343556.80293954,4881458.16787853,460,Bus,20,Northbound,23372,Street Rd & Knights Rd - MBFS,40.106689,-74.951446,Spring 2025,0,0,0,0,0,0
-8343679.92229636,4881819.56255026,461,Bus,20,Northbound,23373,Street Rd & Mechanicsville Rd - MBNS,40.109172,-74.952552,Spring 2025,0,2,0,1,0,2
-8343876.95779506,4882237.73724691,462,Bus,20,Northbound,23374,Street Rd & Mechanicsville Rd - MBFS,40.112045,-74.954322,Spring 2025,0,0,0,0,0,1
-8344257.44781459,4882708.6233907,463,Bus,20,Northbound,23375,Street Rd & Tillman Dr,40.11528,-74.95774,Spring 2025,2,1,1,1,0,0
-8348678.94666941,4877591.93932059,464,Bus,20,Northbound,23393,Red Lion Rd & Academy Rd,40.08012,-74.997459,Spring 2025,0,0,0,0,0,0
-8351178.40319619,4874779.03476244,465,Bus,20,Northbound,23692,Willits Rd & Cloverly Rd,40.060783,-75.019912,Spring 2025,0,1,0,1,0,0
-8350967.78671961,4874692.49427706,466,Bus,20,Northbound,23693,Convent Av & Willits Rd - FS,40.060188,-75.01802,Spring 2025,9,44,4,27,2,25
-8350725.77814663,4874890.01131432,467,Bus,20,Northbound,23694,Convent Av & Fordham Rd - MBFS,40.061546,-75.015846,Spring 2025,1,5,1,1,0,1
-8350387.70085309,4874978.15347171,468,Bus,20,Northbound,23695,Convent Av & Annapolis Rd,40.062152,-75.012809,Spring 2025,2,10,2,8,0,6
-8350190.66535439,4875015.38867803,469,Bus,20,Northbound,23696,Convent Av & Andover Rd,40.062408,-75.011039,Spring 2025,2,9,2,2,3,2
-8350039.49348589,4875028.77011447,470,Bus,20,Northbound,23697,Convent Av & Academy Rd,40.0625,-75.009681,Spring 2025,5,10,0,6,4,6
-8350002.98069291,4875370.4392158,471,Bus,20,Northbound,23698,Academy Rd & Eden St,40.064849,-75.009353,Spring 2025,2,11,3,5,1,2
-8349943.53608482,4875723.90240775,472,Bus,20,Northbound,23699,Academy Rd & Holyoke Rd,40.067279,-75.008819,Spring 2025,3,12,1,6,1,7
-8349588.53822868,4876126.83673393,473,Bus,20,Northbound,23700,Academy Rd & Grant Av - MBFS,40.070049,-75.00563,Spring 2025,3,19,4,5,4,1
-8348490.37145201,4877684.03373312,474,Bus,20,Northbound,23701,Academy Rd & Cromwell Rd,40.080753,-74.995765,Spring 2025,0,7,0,5,0,1
-8348337.52979115,4877800.57149183,475,Bus,20,Northbound,23702,Academy Rd & Red Lion Rd,40.081554,-74.994392,Spring 2025,7,14,5,14,3,8
-8348723.14050726,4877328.75479481,476,Bus,20,Northbound,23703,Morrell Av & Canterbury Rd,40.078311,-74.997856,Spring 2025,0,4,2,1,1,2
-8348452.18886667,4877158.97611601,477,Bus,20,Northbound,23704,Morrell Av & Chesterfield Rd,40.077144,-74.995422,Spring 2025,1,8,1,3,0,5
-8348137.04338823,4877077.9431023,478,Bus,20,Northbound,23705,Morrell Av & S Keswick Rd,40.076587,-74.992591,Spring 2025,1,6,0,4,0,0
-8347387.97453468,4877169.59629082,479,Bus,20,Northbound,23707,Keswick Rd & Rayland Rd,40.077217,-74.985862,Spring 2025,5,7,1,3,3,2
-8347189.26924362,4877491.98948151,480,Bus,20,Northbound,23708,Keswick Rd & Brookview Rd,40.079433,-74.984077,Spring 2025,4,2,3,4,0,2
-8347159.54693958,4877720.69714984,481,Bus,20,Northbound,23709,Keswick Rd & Carey Rd,40.081005,-74.98381,Spring 2025,2,0,2,2,1,1
-8347158.65638365,4877896.59614349,482,Bus,20,Northbound,23710,Keswick Rd & Chalfont Dr,40.082214,-74.983802,Spring 2025,0,15,2,1,0,4
-8347397.32537191,4877930.49597768,483,Bus,20,Northbound,23711,Chalfont Dr & Byrne Rd,40.082447,-74.985946,Spring 2025,0,5,1,3,0,1
-8347675.95805737,4878010.9539885,484,Bus,20,Northbound,23712,Chalfont Dr & Calera Rd,40.083,-74.988449,Spring 2025,2,6,0,2,1,4
-8347832.13930295,4878154.70338151,485,Bus,20,Northbound,23713,Chalfont Dr & Academy Rd,40.083988,-74.989852,Spring 2025,0,5,0,4,2,1
-8347674.17694551,4878282.30453987,486,Bus,20,Northbound,23720,Academy Rd & Ryan High School South Entrance,40.084865,-74.988433,Spring 2025,3,36,2,2,0,1
-8347472.91130616,4878513.79498791,487,Bus,20,Northbound,23721,Academy Rd & Ryan Dr North,40.086456,-74.986625,Spring 2025,17,10,1,3,0,0
-8347335.32041554,4878793.45314109,488,Bus,20,Northbound,23722,Academy Rd & Comly Rd - MBNS,40.088378,-74.985389,Spring 2025,1,0,0,0,1,0
-8346291.58886986,4880119.09947621,489,Bus,20,Northbound,23723,Medford Rd & Tyrone Rd - FS,40.097488,-74.976013,Spring 2025,0,6,1,3,0,2
-8346209.21244667,4880257.34943268,490,Bus,20,Northbound,23724,Medford Rd & Ancona Rd,40.098438,-74.975273,Spring 2025,0,4,0,1,0,0
-8346006.16569547,4880438.24150122,491,Bus,20,Northbound,23725,Medford Rd & Belgreen Rd,40.099681,-74.973449,Spring 2025,2,24,7,7,3,5
-8345755.69684118,4880577.66016937,492,Bus,20,Northbound,23726,Medford Rd & Danley Rd,40.100639,-74.971199,Spring 2025,0,2,0,0,0,2
-8347168.8977768,4879043.28970939,493,Bus,20,Northbound,23727,Academy Rd & Comly Rd - FS,40.090095,-74.983894,Spring 2025,14,32,3,10,2,16
-8345363.29563614,4880597.59807254,494,Bus,20,Northbound,23728,Medford Rd & Lester Rd,40.100776,-74.967674,Spring 2025,2,13,3,3,2,3
-8345116.16636657,4880472.73215809,495,Bus,20,Northbound,23729,Medford Rd & Hollins Rd,40.099918,-74.965454,Spring 2025,1,5,0,3,1,2
-8345052.38029835,4880346.70358934,496,Bus,20,Northbound,23730,Medford Rd & Orion Rd,40.099052,-74.964881,Spring 2025,0,3,0,2,0,0
-8345043.92001705,4880184.00395225,497,Bus,20,Northbound,23731,Medford Rd & Vinton Rd,40.097934,-74.964805,Spring 2025,1,5,0,2,0,1
-8344851.11465899,4879605.55417051,498,Bus,20,Northbound,23733,Mechanicsville Rd & Verda Dr,40.093959,-74.963073,Spring 2025,1,4,2,0,2,0
-8345061.73113558,4878958.31255726,499,Bus,20,Northbound,23734,Franklin Mills & Design Ctr - MBFS,40.089511,-74.964965,Spring 2025,0,36,1,30,1,32
-8351398.37051,4875067.02366832,500,Bus,20,Northbound,23839,Willits Rd & Ashton Rd - MBFS,40.062763,-75.021888,Spring 2025,2,8,0,5,3,4
-8365959.62782271,4862732.01360332,501,Bus,3,Eastbound,25388,Cecil B Moore Av & 11th St,39.977905,-75.152694,Spring 2025,42,67,23,34,24,30
-8349619.15108865,4880683.60802736,502,Bus,14,Northbound,22538,Roosevelt Blvd & Plaza Dr,40.101367,-75.005905,Spring 2025,11,59,7,36,9,25
-8365749.90190205,4862699.90892366,503,Bus,3,Eastbound,25389,Cecil B Moore Av & 10th St - FS,39.977684,-75.15081,Spring 2025,11,18,8,17,8,9
-8365606.29975893,4862678.26374574,504,Bus,3,Eastbound,25390,Cecil B Moore Av & 9th St,39.977535,-75.14952,Spring 2025,15,24,3,2,3,4
-8365498.43117235,4862660.54088353,505,Bus,3,Eastbound,25391,Cecil B Moore Av & 8th St,39.977413,-75.148551,Spring 2025,22,58,14,22,6,23
-8365088.21884878,4863042.89686746,506,Bus,3,Eastbound,25393,Berks St & 6th St,39.980045,-75.144866,Spring 2025,22,26,9,20,11,12
-8364939.60732857,4863019.07182423,507,Bus,3,Eastbound,25394,Berks St & Germantown Av,39.979881,-75.143531,Spring 2025,30,38,21,35,11,25
-8364671.21603626,4862977.95923168,508,Bus,3,Eastbound,25395,Berks St & 4th St,39.979598,-75.14112,Spring 2025,54,37,30,15,28,12
-8364560.00786496,4862956.45872105,509,Bus,3,Eastbound,25396,Berks St & 3rd St,39.97945,-75.140121,Spring 2025,12,12,5,9,5,7
-8364418.96607013,4862929.29260192,510,Bus,3,Eastbound,25397,Berks St & American St,39.979263,-75.138854,Spring 2025,10,34,10,20,8,17
-8364274.58469057,4862905.46783135,511,Bus,3,Eastbound,25398,Berks St & 2nd St,39.979099,-75.137557,Spring 2025,9,20,3,10,7,9
-8364057.17772505,4862871.03823344,512,Bus,3,Eastbound,25399,Berks St & Mascher St,39.978862,-75.135604,Spring 2025,5,31,4,12,4,10
-8363842.33110782,4862831.66951466,513,Bus,3,Eastbound,25401,Berks St & Front St,39.978591,-75.133674,Spring 2025,31,184,13,84,10,63
-8363780.32615145,4863032.29181067,514,Bus,3,Eastbound,25402,Front St & Norris St,39.979972,-75.133117,Spring 2025,5,29,2,24,3,10
-8363744.70391439,4863251.22315701,515,Bus,3,Eastbound,25403,Front St & Coral St,39.981479,-75.132797,Spring 2025,22,19,18,12,12,14
-8363709.86091377,4863465.21977654,516,Bus,3,Eastbound,25404,Front St & Susquehanna Av,39.982952,-75.132484,Spring 2025,8,11,4,8,4,7
-8363394.71543534,4864117.98881415,517,Bus,3,Eastbound,25405,Kensington Av & Cumberland St,39.987445,-75.129653,Spring 2025,61,58,24,12,13,10
-8362928.5094079,4864451.72685034,518,Bus,3,Eastbound,25406,Kensington Av & Lehigh Av,39.989742,-75.125465,Spring 2025,30,18,16,16,19,15
-8362142.03720544,4865019.26710334,519,Bus,3,Eastbound,25407,Kensington Av & Orleans St,39.993648,-75.1184,Spring 2025,35,48,19,23,24,17
-8360043.44216501,4866529.23333601,520,Bus,3,Eastbound,25408,Kensington Av & Castor Av,40.004039,-75.099548,Spring 2025,4,16,4,14,4,3
-8359447.21497232,4866956.64592967,521,Bus,3,Eastbound,25409,Kensington Av & Hunting Park Av,40.00698,-75.094192,Spring 2025,22,8,11,10,7,7
-8359159.34276913,4867164.0370497,522,Bus,3,Eastbound,25410,Kensington Av & Adams Av,40.008407,-75.091606,Spring 2025,16,16,5,1,1,1
-8359009.84069299,4867271.58565852,523,Bus,3,Eastbound,25411,Kensington Av & Womrath St,40.009147,-75.090263,Spring 2025,5,16,1,10,1,6
-8364877.60237219,4863008.4667929,524,Bus,3,Eastbound,26261,Berks St & 5th St,39.979808,-75.142974,Spring 2025,22,11,18,6,16,7
-8360305.82220481,4866343.50861075,525,Bus,3,Eastbound,26262,Kensington Av & Sedgley Av,40.002761,-75.101905,Spring 2025,12,24,9,18,6,11
-8369912.2489823,4863404.78306077,526,Bus,3,Eastbound,30884,Cecil B Moore Av & 33rd St - FS,39.982536,-75.188201,Spring 2025,119,33,106,18,69,18
-8370590.07336174,4863406.38114227,527,Bus,3,Eastbound,31656,Resevoir Dr & SmithDay Nursery Dr,39.982547,-75.19429,Spring 2025,0,0,9,0,8,0
-8361550.93070933,4865473.7876692,528,Bus,3,Westbound,51,Kensington Av & Allegheny Av,39.996776,-75.11309,Spring 2025,142,104,79,54,56,47
-8363679.24805381,4863746.19722478,529,Bus,3,Westbound,52,Front St & Dauphin St,39.984886,-75.132209,Spring 2025,48,23,24,13,20,10
-8366520.23277834,4862848.37577847,530,Bus,3,Westbound,53,Cecil B Moore Av & Broad St,39.978706,-75.15773,Spring 2025,651,399,369,240,307,201
-8367580.99620611,4863027.35247302,531,Bus,3,Westbound,54,Cecil B Moore Av & 20th St,39.979938,-75.167259,Spring 2025,23,79,11,40,7,38
-8369994.62540549,4863383.71746508,532,Bus,3,Westbound,55,33rd St & Cecil B Moore Av Loop,39.982391,-75.188941,Spring 2025,0,38,0,25,0,22
-8362593.88301857,4864716.02279205,533,Bus,3,Westbound,801,Kensington Av & Somerset St,39.991561,-75.122459,Spring 2025,74,78,47,45,47,36
-8362920.0491266,4864480.49539103,534,Bus,3,Westbound,8986,Kensington Av & Lehigh Av,39.98994,-75.125389,Spring 2025,14,54,11,25,7,17
-8363382.02501339,4864149.66220761,535,Bus,3,Westbound,16355,Kensington Av & Cumberland St,39.987663,-75.129539,Spring 2025,40,47,13,19,11,11
-8360552.95147437,4866188.88598285,536,Bus,3,Westbound,17840,Kensington Av & Venango St,40.001697,-75.104125,Spring 2025,23,16,16,9,14,9
-8361054.89105835,4865828.06078262,537,Bus,3,Westbound,17848,Kensington Av & J St,39.999214,-75.108634,Spring 2025,58,26,17,14,27,12
-8361303.80143977,4865650.63201886,538,Bus,3,Westbound,17853,Kensington Av & I St,39.997993,-75.11087,Spring 2025,39,33,30,19,24,13
-8358474.72790075,4868103.81877176,539,Bus,3,Westbound,19011,Frankford Av & Orthodox St,40.014873,-75.085456,Spring 2025,46,23,16,8,8,8
-8359692.67444952,4866805.93765345,540,Bus,3,Westbound,19013,Kensington Av & Erie Av,40.005943,-75.096397,Spring 2025,130,68,65,32,55,18
-8365535.83452126,4868576.79549516,541,Bus,1,Northbound,4,Roosevelt Blvd & Broad St - FS,40.018127,-75.148887,Spring 2025,16,1,0,0,0,0
-8360795.07136684,4866013.19458665,542,Bus,3,Westbound,19014,Kensington Av & K St,40.000488,-75.1063,Spring 2025,78,39,50,22,31,13
-8363126.43546253,4864335.92705267,543,Bus,3,Westbound,19016,Kensington Av & Huntingdon St,39.988945,-75.127243,Spring 2025,76,57,34,27,28,24
-8363612.23372035,4863983.30537529,544,Bus,3,Westbound,19017,Kensington Av & Front St,39.986518,-75.131607,Spring 2025,40,32,21,10,10,12
-8357656.86360189,4869476.73451096,545,Bus,3,Westbound,21971,Frankford Transit Center - Rt 3,40.024318,-75.078109,Spring 2025,374,0,210,0,174,0
-8357908.33433159,4868907.34025066,546,Bus,3,Westbound,24088,Frankford Av & Wakeling St,40.020401,-75.080368,Spring 2025,36,0,21,0,24,0
-8357796.12428487,4869065.34860527,547,Bus,3,Westbound,24089,Frankford Av & Dyre St,40.021488,-75.07936,Spring 2025,112,0,58,0,41,0
-8358031.45368841,4868738.14182286,548,Bus,3,Westbound,24090,Frankford Av & Harrison St,40.019237,-75.081474,Spring 2025,48,0,24,0,20,1
-8358158.80318588,4868556.3003387,549,Bus,3,Westbound,24091,Frankford Av & Foulkrod St,40.017986,-75.082618,Spring 2025,39,8,24,3,14,3
-8358569.01550945,4867973.58697737,550,Bus,3,Westbound,24093,Frankford Av & Sellers St,40.013977,-75.086303,Spring 2025,40,22,16,7,7,7
-8358706.60640007,4867779.40524494,551,Bus,3,Westbound,24094,Frankford Av & Unity St,40.012641,-75.087539,Spring 2025,40,34,20,13,19,9
-8358835.73700939,4867545.98522914,552,Bus,3,Westbound,24095,Frankford Av & Church St,40.011035,-75.088699,Spring 2025,49,28,23,15,25,10
-8358878.14973538,4867466.77482808,553,Bus,3,Westbound,24129,Frankford Av & Ruan St - MBNS,40.01049,-75.08908,Spring 2025,20,7,14,5,6,4
-8358271.79246903,4868394.95696889,554,Bus,3,Westbound,25421,Frankford Av & Oxford Av,40.016876,-75.083633,Spring 2025,187,56,91,33,89,16
-8359000.48985577,4867302.68777084,555,Bus,3,Westbound,25426,Kensington Av & Womrath St,40.009361,-75.090179,Spring 2025,13,7,4,2,5,4
-8359133.85060573,4867205.02165232,556,Bus,3,Westbound,25427,Kensington Av & Adams Av,40.008689,-75.091377,Spring 2025,11,16,7,3,2,1
-8359425.95294958,4866996.61234648,557,Bus,3,Westbound,25428,Kensington Av & Hunting Park Av,40.007255,-75.094001,Spring 2025,9,14,8,4,4,7
-8360012.82930504,4866574.720438,558,Bus,3,Westbound,25429,Kensington Av & Castor Av,40.004352,-75.099273,Spring 2025,9,11,7,2,1,3
-8360265.07927118,4866396.84235052,559,Bus,3,Westbound,25430,Kensington Av & M St,40.003128,-75.101539,Spring 2025,17,13,4,7,4,3
-8361829.4520753,4865272.09886416,560,Bus,3,Westbound,25436,Kensington Av & G St,39.995388,-75.115592,Spring 2025,89,37,57,21,38,15
-8362097.06413116,4865080.7307836,561,Bus,3,Westbound,25438,Kensington Av & F St,39.994071,-75.117996,Spring 2025,55,26,27,21,25,14
-8362351.87444559,4864897.9392065,562,Bus,3,Westbound,25440,Kensington Av & E St,39.992813,-75.120285,Spring 2025,43,39,32,14,23,15
-8363719.99098744,4863512.87206188,563,Bus,3,Westbound,25451,Front St & Susquehanna Av,39.98328,-75.132575,Spring 2025,21,10,11,7,12,5
-8363757.39433634,4863285.07296007,564,Bus,3,Westbound,25452,Front St & Diamond St,39.981712,-75.132911,Spring 2025,12,19,11,11,0,14
-8363793.90712932,4863071.08022412,565,Bus,3,Westbound,25453,Front St & Norris St,39.980239,-75.133239,Spring 2025,20,4,17,6,14,2
-8364028.34597693,4862883.82220523,566,Bus,3,Westbound,25455,Berks St & Mascher St,39.97895,-75.135345,Spring 2025,29,7,11,3,14,3
-8364248.31329074,4862919.26875855,567,Bus,3,Westbound,25456,Berks St & 2nd St,39.979194,-75.137321,Spring 2025,23,6,12,3,12,2
-8369166.63103297,4863500.66840603,568,Bus,7,Northbound,2896,29th St & Montgomery Av,39.983196,-75.181503,Spring 2025,15,31,4,17,3,12
-8364380.78348478,4862942.07664872,569,Bus,3,Westbound,25457,Berks St & American St,39.979351,-75.138511,Spring 2025,37,15,19,6,15,13
-8364531.95535328,4862970.25971915,570,Bus,3,Westbound,25458,Berks St & 3rd St,39.979545,-75.139869,Spring 2025,22,17,11,6,9,2
-8364643.27484407,4862990.74334116,571,Bus,3,Westbound,25459,Berks St & 4th St,39.979686,-75.140869,Spring 2025,17,38,12,28,12,23
-8364849.66118001,4863021.25094167,572,Bus,3,Westbound,25460,Berks St & 5th St,39.979896,-75.142723,Spring 2025,13,40,7,21,7,8
-8365050.03626343,4863055.68106056,573,Bus,3,Westbound,25465,Berks St & 6th St,39.980133,-75.144523,Spring 2025,74,70,50,29,35,20
-8365112.93177573,4862845.61561121,574,Bus,3,Westbound,25467,6th St & Montgomery Av,39.978687,-75.145088,Spring 2025,7,6,7,6,6,4
-8365143.43331621,4862622.77095487,575,Bus,3,Westbound,25468,6th St & Cecil B Moore Av,39.977153,-75.145362,Spring 2025,51,30,21,13,14,6
-8365292.93539234,4862643.83493582,576,Bus,3,Westbound,25469,Cecil B Moore Av & 7th St,39.977298,-75.146705,Spring 2025,46,17,35,9,26,10
-8365510.34235786,4862680.44278836,577,Bus,3,Westbound,25470,Cecil B Moore Av & 8th St - FS,39.97755,-75.148658,Spring 2025,97,58,37,20,37,21
-8365754.1320427,4862719.22982703,578,Bus,3,Westbound,25471,Cecil B Moore Av & 10th St,39.977817,-75.150848,Spring 2025,24,12,12,14,7,6
-8365930.79607459,4862745.81428938,579,Bus,3,Westbound,25472,Cecil B Moore Av & 11th St,39.978,-75.152435,Spring 2025,30,46,13,19,13,16
-8366104.00920227,4862774.72315711,580,Bus,3,Westbound,25473,Cecil B Moore Av & 12th St,39.978199,-75.153991,Spring 2025,143,102,78,46,59,39
-8366279.00344179,4862802.90575241,581,Bus,3,Westbound,25474,Cecil B Moore Av & 13th St,39.978393,-75.155563,Spring 2025,36,42,17,11,13,11
-8349302.33581785,4880969.00343296,582,Bus,14,Northbound,22539,Roosevelt Blvd & Bennett Rd,40.103328,-75.003059,Spring 2025,3,25,2,20,1,12
-8366706.13632797,4862882.66002529,583,Bus,3,Westbound,25475,Cecil B Moore Av & 15th St,39.978942,-75.1594,Spring 2025,132,52,67,39,56,20
-8366880.24001157,4862913.16729363,584,Bus,3,Westbound,25476,Cecil B Moore Av & 16th St,39.979152,-75.160964,Spring 2025,63,77,36,32,26,29
-8367056.90404345,4862942.07664872,585,Bus,3,Westbound,25477,Cecil B Moore Av & 17th St,39.979351,-75.162551,Spring 2025,45,61,38,37,24,35
-8367232.78883891,4862972.43882586,586,Bus,3,Westbound,25478,Cecil B Moore Av & 18th St,39.97956,-75.164131,Spring 2025,52,111,21,53,18,39
-8367407.67175894,4863000.18615987,587,Bus,3,Westbound,25479,Cecil B Moore Av & 19th St,39.979751,-75.165702,Spring 2025,56,128,36,78,32,62
-8367790.72212676,4863062.79953886,588,Bus,3,Westbound,25480,Cecil B Moore Av & 21st St,39.980182,-75.169143,Spring 2025,25,127,11,68,11,54
-8367958.92587735,4863092.14515636,589,Bus,3,Westbound,25481,Cecil B Moore Av & 22nd St,39.980384,-75.170654,Spring 2025,37,164,28,82,16,61
-8368148.28033119,4863123.81527653,590,Bus,3,Westbound,25482,Cecil B Moore Av & Ridge Av,39.980602,-75.172355,Spring 2025,42,274,22,153,17,127
-8368329.17450373,4863154.32328601,591,Bus,3,Westbound,25483,Cecil B Moore Av & 24th St,39.980812,-75.17398,Spring 2025,20,105,7,58,5,50
-8368506.72909155,4863185.84832764,592,Bus,3,Westbound,25484,Cecil B Moore Av & 25th St,39.981029,-75.175575,Spring 2025,10,119,7,66,4,65
-8368684.17235987,4863214.61319952,593,Bus,3,Westbound,25485,Cecil B Moore Av & 26th St,39.981227,-75.177169,Spring 2025,6,126,3,73,6,45
-8368854.93645875,4863245.12148805,594,Bus,3,Westbound,25486,Cecil B Moore Av & 27th St,39.981437,-75.178703,Spring 2025,3,96,4,62,2,47
-8369013.78937211,4863272.86958429,595,Bus,3,Westbound,25487,Cecil B Moore Av & 28th St,39.981628,-75.18013,Spring 2025,3,120,3,47,2,45
-8369196.35333701,4863301.63470834,596,Bus,3,Westbound,25488,Cecil B Moore Av & 29th St,39.981826,-75.18177,Spring 2025,12,233,8,138,7,116
-8369376.35695362,4863330.98103191,597,Bus,3,Westbound,25489,Cecil B Moore Av & 30th St,39.982028,-75.183387,Spring 2025,3,45,2,31,0,23
-8369539.44000764,4863358.14825037,598,Bus,3,Westbound,25490,Cecil B Moore Av & 31st St,39.982215,-75.184852,Spring 2025,0,84,0,51,0,42
-8369728.01522504,4863391.41729832,599,Bus,3,Westbound,25491,Cecil B Moore Av & 32nd St,39.982444,-75.186546,Spring 2025,1,59,3,37,2,25
-8364914.11516518,4863032.87290938,600,Bus,3,Westbound,26260,Berks St & Germantown Av,39.979976,-75.143302,Spring 2025,34,34,22,19,16,20
-8369917.36967888,4863424.68645778,601,Bus,3,Westbound,26263,Cecil B Moore Av & 33rd St,39.982673,-75.188247,Spring 2025,6,29,7,41,9,30
-8363850.79138912,4862853.8961153,602,Bus,3,Westbound,31367,Berks St & Front St - FS,39.978744,-75.13375,Spring 2025,128,27,54,16,41,17
-8370699.61174068,4863538.8775214,603,Bus,3,Westbound,31684,Resevoir Dr & SmithDay Nursery Dr - 1,39.983459,-75.195274,Spring 2025,0,0,0,16,0,11
-8368211.95507993,4852747.08787141,604,Bus,4,Northbound,158,Broad St & Geary St,39.909137,-75.172927,Spring 2025,5,0,8,0,1,0
-8366698.56660259,4861769.93516658,605,Bus,4,Northbound,164,Broad St & Girard Av,39.971282,-75.159332,Spring 2025,107,57,65,40,57,30
-8365970.64845229,4866155.02627409,606,Bus,4,Northbound,165,Broad St & Allegheny Av,40.001464,-75.152793,Spring 2025,82,120,43,62,32,53
-8364848.77062408,4867110.2631825,607,Bus,4,Northbound,167,9th St & Erie Av,40.008037,-75.142715,Spring 2025,36,55,12,26,13,20
-8367398.32092172,4857610.08791863,608,Bus,4,Northbound,5135,Broad St & Bainbridge St,39.942638,-75.165618,Spring 2025,14,8,7,6,10,5
-8367489.2689457,4857060.68381766,609,Bus,4,Northbound,5150,Broad St & Carpenter St,39.938854,-75.166435,Spring 2025,31,21,24,11,14,7
-8367445.96566378,4857327.10616636,610,Bus,4,Northbound,5152,Broad St & Catharine St,39.940689,-75.166046,Spring 2025,38,17,15,1,9,2
-8367464.55601874,4857212.98650904,611,Bus,4,Northbound,5166,Broad St & Christian St,39.939903,-75.166213,Spring 2025,78,30,28,11,20,7
-8367422.14329275,4857469.39459814,612,Bus,4,Northbound,5195,Broad St & Fitzwater St,39.941669,-75.165832,Spring 2025,14,9,9,4,10,1
-8367269.30163189,4858399.98215223,613,Bus,4,Northbound,5229,Broad St & Locust St,39.948078,-75.164459,Spring 2025,27,53,25,45,19,16
-8367352.45729151,4857882.04257523,614,Bus,4,Northbound,5233,Broad St & Lombard St,39.944511,-75.165206,Spring 2025,33,44,15,9,12,7
-8367331.30658826,4858015.48167238,615,Bus,4,Northbound,5281,Broad St & Pine St,39.94543,-75.165016,Spring 2025,21,9,15,6,9,7
-8367296.46358764,4858224.28333413,616,Bus,4,Northbound,5318,Broad St & Spruce St,39.946868,-75.164703,Spring 2025,29,35,12,34,12,13
-8367376.27966254,4857738.58665506,617,Bus,4,Northbound,14996,Broad St & South St,39.943523,-75.16542,Spring 2025,26,20,16,9,8,7
-8367240.35856428,4858563.92211659,618,Bus,4,Northbound,15941,Broad St & Walnut St,39.949207,-75.164199,Spring 2025,56,121,26,64,17,45
-8368182.23277588,4852937.05744924,619,Bus,4,Northbound,17229,Broad St & Curtin St,39.910446,-75.17266,Spring 2025,16,0,4,0,3,0
-8368115.99767886,4853290.15798985,620,Bus,4,Northbound,17231,Broad St & Pollack St,39.912879,-75.172065,Spring 2025,0,0,2,0,2,0
-8368076.14530116,4853513.37392656,621,Bus,4,Northbound,17232,Broad St & Bigler St - FS,39.914417,-75.171707,Spring 2025,6,0,4,0,1,0
-8367990.31797376,4854033.26298532,622,Bus,4,Northbound,17233,Broad St & Shunk St,39.917999,-75.170936,Spring 2025,19,1,5,0,6,2
-8367965.71636629,4854217.59645671,623,Bus,4,Northbound,17234,Broad St & Porter St,39.919269,-75.170715,Spring 2025,45,0,20,0,7,0
-8367934.32426989,4854402.51394082,624,Bus,4,Northbound,17235,Broad St & Ritner St,39.920543,-75.170433,Spring 2025,44,6,17,0,8,2
-8367906.27175821,4854580.32245854,625,Bus,4,Northbound,17236,Broad St & Wolf St,39.921768,-75.170181,Spring 2025,49,15,18,5,13,0
-8367874.76834231,4854763.50484593,626,Bus,4,Northbound,17237,Broad St & Jackson St,39.92303,-75.169898,Spring 2025,35,8,23,3,14,1
-8367843.37624591,4854942.48107327,627,Bus,4,Northbound,17238,Broad St & Snyder Av,39.924263,-75.169616,Spring 2025,155,20,75,20,58,8
-8367812.87470543,4855117.39607229,628,Bus,4,Northbound,17239,Broad St & McKean St,39.925468,-75.169342,Spring 2025,63,11,24,2,17,4
-8367786.49198611,4855298.41093518,629,Bus,4,Northbound,17240,Broad St & Mifflin St,39.926715,-75.169105,Spring 2025,32,6,24,3,16,1
-8367755.87912615,4855473.47736317,630,Bus,4,Northbound,17241,Broad St & Moore St,39.927921,-75.16883,Spring 2025,21,7,16,7,9,2
-8367723.59647382,4855652.32121054,631,Bus,4,Northbound,17243,Broad St & Morris St,39.929153,-75.16854,Spring 2025,81,29,39,10,26,11
-8367695.65528163,4855832.32963176,632,Bus,4,Northbound,17244,Broad St & Tasker St,39.930393,-75.168289,Spring 2025,43,29,40,6,14,6
-8367668.49332587,4856004.50202756,633,Bus,4,Northbound,17245,Broad St & Dickinson St,39.931579,-75.168045,Spring 2025,22,9,12,3,6,5
-8367637.88046591,4856184.51682877,634,Bus,4,Northbound,17246,Broad St & Reed  St,39.932819,-75.16777,Spring 2025,16,7,12,4,5,4
-8367605.59781358,4856360.61510841,635,Bus,4,Northbound,17247,Broad St & Wharton St,39.934032,-75.16748,Spring 2025,22,14,16,11,12,3
-8367568.19446467,4856584.91628229,636,Bus,4,Northbound,17248,Broad St & Federal St,39.935577,-75.167144,Spring 2025,35,27,12,7,12,4
-8367541.92306484,4856734.45321133,637,Bus,4,Northbound,17249,Broad St & Ellsworth St,39.936607,-75.166908,Spring 2025,25,24,16,14,12,3
-8367112.11851089,4859303.35547363,638,Bus,4,Northbound,17261,Broad St & Arch St,39.954299,-75.163047,Spring 2025,138,65,79,43,58,29
-8367069.7057849,4859565.48126016,639,Bus,4,Northbound,17262,Broad St & Race St,39.956104,-75.162666,Spring 2025,107,33,58,12,52,16
-8367008.59138445,4859910.1036935,640,Bus,4,Northbound,17263,Broad St & Vine St - FS,39.958477,-75.162117,Spring 2025,20,12,12,8,12,5
-8366983.8784575,4860084.52525199,641,Bus,4,Northbound,17264,Broad St & Callowhill St - FS,39.959678,-75.161895,Spring 2025,14,17,7,8,6,8
-8366925.32440534,4860420.30626969,642,Bus,4,Northbound,17265,Broad St & Spring Garden St,39.96199,-75.161369,Spring 2025,85,49,49,24,42,17
-8366890.48140472,4860664.01603942,643,Bus,4,Northbound,17266,Broad St & Green St,39.963668,-75.161056,Spring 2025,22,19,6,5,2,11
-8366842.05742622,4860905.11740628,644,Bus,4,Northbound,17267,Broad St & Wallace St - FS,39.965328,-75.160621,Spring 2025,12,24,5,7,0,2
-8366819.12561112,4861039.75909046,645,Bus,4,Northbound,17268,Broad St & Ridge Av,39.966255,-75.160415,Spring 2025,39,29,28,23,22,17
-8366780.05246985,4861292.92525918,646,Bus,4,Northbound,17269,Broad St & Brown St,39.967998,-75.160064,Spring 2025,29,18,12,11,7,4
-8366758.01121068,4861419.29288758,647,Bus,4,Northbound,17270,Broad St & Parrish St,39.968868,-75.159866,Spring 2025,10,6,3,8,2,2
-8366725.72855834,4861595.48400104,648,Bus,4,Northbound,17271,Broad St & Poplar St,39.970081,-75.159576,Spring 2025,11,19,10,9,8,8
-8366656.93311303,4862032.12607245,649,Bus,4,Northbound,17273,Broad St & Thompson St,39.973087,-75.158958,Spring 2025,13,9,5,4,4,5
-8366623.75990478,4862219.94907775,650,Bus,4,Northbound,17274,Broad St & Master St,39.97438,-75.15866,Spring 2025,19,30,10,14,5,11
-8366590.69801601,4862417.79896339,651,Bus,4,Northbound,17275,Broad St & Jefferson St,39.975742,-75.158363,Spring 2025,19,28,11,13,10,16
-8366562.64550433,4862618.99396991,652,Bus,4,Northbound,17276,Broad St & Oxford St,39.977127,-75.158111,Spring 2025,48,35,35,33,31,23
-8366529.58361557,4862819.03088159,653,Bus,4,Northbound,17277,Broad St & Cecil B Moore Av,39.978504,-75.157814,Spring 2025,113,78,70,46,63,35
-8366486.16901416,4863091.12822757,654,Bus,4,Northbound,17278,Broad St & Montgomery Av - FS,39.980377,-75.157424,Spring 2025,7,14,5,13,3,7
-8366454.77691775,4863268.94707383,655,Bus,4,Northbound,17279,Broad St & Polett Walk,39.981601,-75.157142,Spring 2025,6,20,4,6,1,4
-8366419.93391714,4863478.44035716,656,Bus,4,Northbound,17280,Broad St & Norris St,39.983043,-75.156829,Spring 2025,11,31,4,18,3,15
-8366376.63063522,4863741.69338703,657,Bus,4,Northbound,17281,Broad St & Diamond St - FS,39.984855,-75.15644,Spring 2025,13,31,5,21,8,12
-8366343.56874645,4863929.54874171,658,Bus,4,Northbound,17282,Broad St & Susquehanna Av,39.986148,-75.156143,Spring 2025,38,65,22,36,12,35
-8366305.27484162,4864163.46486482,659,Bus,4,Northbound,17283,Broad St & Dauphin St,39.987758,-75.155799,Spring 2025,36,33,17,20,17,16
-8366268.76204864,4864379.07939149,660,Bus,4,Northbound,17284,Broad St & York St,39.989242,-75.155471,Spring 2025,14,21,3,14,6,9
-8366231.47001922,4864599.6387201,661,Bus,4,Northbound,17286,Broad St & Cumberland St,39.99076,-75.155136,Spring 2025,7,18,7,5,5,10
-8366195.73646268,4864818.6046413,662,Bus,4,Northbound,17287,Broad St & Huntingdon St,39.992267,-75.154815,Spring 2025,5,17,3,10,1,9
-8366163.45381035,4865036.41296168,663,Bus,4,Northbound,17288,Broad St & Lehigh Av,39.993766,-75.154525,Spring 2025,65,106,33,60,24,50
-8366124.38066908,4865277.03931905,664,Bus,4,Northbound,17290,Broad St & Somerset St,39.995422,-75.154174,Spring 2025,7,8,0,7,3,5
-8366087.8678761,4865458.82070784,665,Bus,4,Northbound,17291,Broad St & Glenwood Av,39.996673,-75.153846,Spring 2025,22,19,9,17,14,11
-8366044.56459418,4865716.60434184,666,Bus,4,Northbound,17296,Broad St & Indiana Av,39.998447,-75.153457,Spring 2025,6,19,1,7,6,6
-8366004.71221648,4865964.36775352,667,Bus,4,Northbound,17297,Broad St & Clearfield St - FS,40.000152,-75.153099,Spring 2025,2,10,3,5,2,6
-8365583.36794383,4866494.93648966,668,Bus,4,Northbound,17363,Rising Sun Av & Germantown Av,40.003803,-75.149314,Spring 2025,25,37,13,30,4,28
-8365473.82956488,4866565.85552317,669,Bus,4,Northbound,17365,Rising Sun Av & Old York Rd - FS,40.004291,-75.14833,Spring 2025,9,11,4,3,2,3
-8365299.72588128,4866667.8751859,670,Bus,4,Northbound,17366,Rising Sun Av & 11th St,40.004993,-75.146766,Spring 2025,15,27,5,14,6,20
-8364897.19460258,4866900.11189139,671,Bus,4,Northbound,17367,Rising Sun Av & 9th St,40.006591,-75.14315,Spring 2025,5,32,5,22,7,16
-8364813.92762346,4867345.85301353,672,Bus,4,Northbound,17368,9th St & Butler St,40.009658,-75.142402,Spring 2025,13,23,3,15,8,12
-8364775.74503812,4867561.53670325,673,Bus,4,Northbound,17369,9th St & Pike St,40.011142,-75.142059,Spring 2025,19,51,8,24,11,14
-8364740.01148158,4867776.6437058,674,Bus,4,Northbound,17370,9th St & Luzerne St,40.012622,-75.141738,Spring 2025,11,57,16,28,6,25
-8364703.49868859,4867995.67975064,675,Bus,4,Northbound,17372,9th St & Lycoming St,40.014129,-75.14141,Spring 2025,7,37,4,13,3,16
-8364666.20665918,4868229.11034838,676,Bus,4,Northbound,17374,9th St & Hunting Park Av,40.015735,-75.141075,Spring 2025,24,45,10,31,5,19
-8364625.35240606,4868458.62187702,677,Bus,4,Northbound,17375,9th St & Bristol St,40.017314,-75.140708,Spring 2025,5,31,4,13,2,8
-8364588.83961308,4868678.25441115,678,Bus,4,Northbound,17377,9th St & Cayuga St,40.018825,-75.14038,Spring 2025,4,31,5,11,4,8
-8364537.96660578,4868968.24657679,679,Bus,4,Northbound,17379,9th St & Roosevelt Blvd,40.02082,-75.139923,Spring 2025,19,44,10,23,4,23
-8364500.56325688,4869171.75491376,680,Bus,4,Northbound,17381,9th St & Roosevelt Blvd - FS,40.02222,-75.139587,Spring 2025,0,6,0,0,1,0
-8364469.95039691,4869338.19876501,681,Bus,4,Northbound,17382,9th St & Wyoming Av,40.023365,-75.139312,Spring 2025,6,6,3,11,0,4
-8364395.25501859,4869786.23006743,682,Bus,4,Northbound,17384,9th St & Rockland St,40.026447,-75.138641,Spring 2025,14,66,8,33,8,35
-8364357.85166968,4870002.98446778,683,Bus,4,Northbound,17386,9th St & Ruscomb St,40.027938,-75.138305,Spring 2025,5,40,4,29,1,13
-8364321.3388767,4870222.65120532,684,Bus,4,Northbound,17387,9th St & Lindley Av,40.029449,-75.137977,Spring 2025,30,47,8,16,8,17
-8364283.93552779,4870445.08509037,685,Bus,4,Northbound,17389,9th St & Duncannon Av,40.030979,-75.137641,Spring 2025,6,15,5,10,1,13
-8364247.42273482,4870670.72246889,686,Bus,4,Northbound,17390,9th St & Fisher Av,40.032531,-75.137313,Spring 2025,7,17,1,9,2,3
-8364418.18683369,4870721.7532838,687,Bus,4,Northbound,17393,Fisher Av & 10th St,40.032882,-75.138847,Spring 2025,3,10,6,16,2,8
-8364559.11730903,4870988.54258885,688,Bus,4,Northbound,17394,11th St & Somerville Av - FS,40.034717,-75.140113,Spring 2025,3,15,2,5,0,3
-8364526.83465671,4871172.75497957,689,Bus,4,Northbound,17396,11th St & Clarkson Av,40.035984,-75.139823,Spring 2025,3,12,1,4,1,3
-8364452.13927838,4871618.68817294,690,Bus,4,Northbound,17398,11th St & Chew St - FS,40.039051,-75.139152,Spring 2025,1,21,0,2,0,3
-8364526.83465671,4871882.15731368,691,Bus,4,Northbound,17400,Grange Av 11th St - FS,40.040863,-75.139823,Spring 2025,0,21,0,9,0,4
-8367517.32145738,4856890.09015287,692,Bus,4,Northbound,18273,Broad St & Washington Av,39.937679,-75.166687,Spring 2025,55,44,40,33,29,22
-8367186.9252087,4858887.45374045,693,Bus,4,Northbound,20414,Broad St & S Penn Square,39.951435,-75.163719,Spring 2025,182,212,120,117,98,73
-8364403.71529989,4872070.74852026,694,Bus,4,Northbound,21193,Nedro Av & 11th St,40.04216,-75.138717,Spring 2025,40,55,16,42,12,28
-8364469.95039691,4871965.32893792,695,Bus,4,Northbound,21534,11th St & Nedro Av - FS,40.041435,-75.139312,Spring 2025,0,28,0,27,0,31
-8368199.26465798,4852549.43048347,696,Bus,4,Northbound,25239,Broad St & Hartranft St,39.907775,-75.172813,Spring 2025,3,0,1,0,1,0
-8364431.76781157,4869569.91651574,697,Bus,4,Northbound,28692,9th St & Loudon St,40.024959,-75.138969,Spring 2025,2,21,2,14,3,8
-8364533.62514564,4870915.84724383,698,Bus,4,Northbound,28693,10th St & Wagner Av,40.034217,-75.139884,Spring 2025,2,9,0,4,0,6
-8364483.53137479,4871434.46749706,699,Bus,4,Northbound,28694,11th St & Olney Av,40.037784,-75.139434,Spring 2025,4,86,2,53,1,43
-8364552.3268201,4872092.85042312,700,Bus,4,Northbound,28695,12th St & Nedro Av,40.042312,-75.140052,Spring 2025,3,30,9,34,2,23
-8365859.44028099,4866413.99058934,701,Bus,4,Northbound,30065,Rising Sun Av & Westmoreland St - FS,40.003246,-75.151794,Spring 2025,29,65,11,36,8,29
-8364501.4538128,4871323.52962531,702,Bus,4,Northbound,30304,11th St & Tabor Rd,40.037021,-75.139595,Spring 2025,0,31,2,9,0,12
-8368025.16097438,4853824.98479061,703,Bus,4,Northbound,31307,Broad St & Oregon Av - 2,39.916564,-75.171249,Spring 2025,114,3,67,3,49,3
-8368251.02822119,4852253.38712102,704,Bus,4,Northbound,31487,Broad St & Pattison Av - 3 FS,39.905735,-75.173278,Spring 2025,49,0,65,0,57,0
-8364860.68180959,4867141.36478907,705,Bus,4,Southbound,141,9th St & Erie Av,40.008251,-75.142822,Spring 2025,32,32,13,12,16,6
-8366724.83800242,4861813.22160902,706,Bus,4,Southbound,143,Broad St & Girard Av,39.97158,-75.159568,Spring 2025,78,75,41,40,46,38
-8367531.68167169,4856936.5494139,707,Bus,4,Southbound,148,Broad St & Washington Av,39.937999,-75.166816,Spring 2025,88,60,59,43,33,41
-8368263.82996264,4852789.75451931,708,Bus,4,Southbound,150,Broad St & Geary St,39.909431,-75.173393,Spring 2025,0,11,1,8,0,4
-8368271.39968801,4852175.74975707,709,Bus,4,Southbound,356,Broad St & Pattison Av - 2 NS,39.9052,-75.173461,Spring 2025,5,18,10,13,11,16
-8367369.4891736,4859085.09202241,710,Bus,4,Southbound,515,15th St & Market St,39.952796,-75.165359,Spring 2025,191,283,73,155,65,132
-8367142.73137086,4859336.03005574,711,Bus,4,Southbound,5131,Broad St & Arch St,39.954524,-75.163322,Spring 2025,40,106,25,55,23,38
-8368107.53739756,4853503.94012168,712,Bus,4,Southbound,5140,Broad St & Bigler St,39.914352,-75.171989,Spring 2025,1,6,0,3,0,6
-8366813.22567811,4861287.40579023,713,Bus,4,Southbound,5144,Broad St & Brown St,39.96796,-75.160362,Spring 2025,17,29,0,7,3,5
-8366034.43452052,4865923.96954345,714,Bus,4,Southbound,5169,Broad St & Clearfield St - FS,39.999874,-75.153366,Spring 2025,16,2,3,5,8,2
-8367892.69078033,4854796.16450101,715,Bus,4,Southbound,5221,Broad St & Jackson St,39.923255,-75.170059,Spring 2025,6,23,2,20,3,15
-8366650.1426241,4862253.79536452,716,Bus,4,Southbound,5252,Broad St & Master St,39.974613,-75.158897,Spring 2025,21,12,15,6,6,4
-8366585.57731944,4862618.99396991,717,Bus,4,Southbound,5273,Broad St & Oxford St - FS,39.977127,-75.158317,Spring 2025,29,40,27,36,17,29
-8366787.73351472,4861451.97443254,718,Bus,4,Southbound,5277,Broad St & Parrish St,39.969093,-75.160133,Spring 2025,6,16,7,2,2,4
-8367981.85769246,4854257.51163504,719,Bus,4,Southbound,5287,Broad St & Porter St,39.919544,-75.17086,Spring 2025,1,46,0,21,2,17
-8367952.91462485,4854438.51083699,720,Bus,4,Southbound,5296,Broad St & Ritner St,39.920791,-75.1706,Spring 2025,3,38,3,12,2,11
-8368012.35923293,4854069.8391188,721,Bus,4,Southbound,5305,Broad St & Shunk St,39.918251,-75.171134,Spring 2025,1,23,2,8,0,11
-8367860.408128,4854982.83463387,722,Bus,4,Southbound,5308,Broad St & Snyder Av,39.924541,-75.169769,Spring 2025,27,163,14,89,11,55
-8366687.545973,4862060.88760156,723,Bus,4,Southbound,5328,Broad St & Thompson St,39.973285,-75.159233,Spring 2025,13,24,4,9,4,4
-8367232.78883891,4858748.9205073,724,Bus,4,Southbound,15185,Broad St & Chestnut St - FS,39.950481,-75.164131,Spring 2025,141,66,81,36,62,27
-8367256.49989045,4858599.93409212,725,Bus,4,Southbound,15186,Broad St & Walnut St,39.949455,-75.164344,Spring 2025,121,71,67,41,59,29
-8367283.6618462,4858431.49210363,726,Bus,4,Southbound,15187,Broad St & Locust St,39.948295,-75.164588,Spring 2025,38,24,25,17,22,12
-8367313.38415024,4858258.69682485,727,Bus,4,Southbound,15188,Broad St & Spruce St,39.947105,-75.164855,Spring 2025,17,25,22,12,17,13
-8367347.44791443,4858053.23408174,728,Bus,4,Southbound,15189,Broad St & Pine St,39.94569,-75.165161,Spring 2025,17,19,11,10,5,2
-8367369.4891736,4857919.64927758,729,Bus,4,Southbound,15190,Broad St & Lombard St,39.94477,-75.165359,Spring 2025,26,31,12,9,10,15
-8367393.31154463,4857772.41767224,730,Bus,4,Southbound,15191,Broad St & South St,39.943756,-75.165573,Spring 2025,31,17,10,15,11,14
-8367420.47350039,4857608.92635571,731,Bus,4,Southbound,15192,Broad St & Bainbridge St - FS,39.94263,-75.165817,Spring 2025,4,16,4,10,2,2
-8367439.17517484,4857505.98338142,732,Bus,4,Southbound,15193,Broad St & Fitzwater St,39.941921,-75.165985,Spring 2025,11,14,4,10,6,10
-8367462.88622638,4857359.19348169,733,Bus,4,Southbound,15194,Broad St & Catharine St,39.94091,-75.166198,Spring 2025,27,36,3,15,3,7
-8367481.58790083,4857248.99358761,734,Bus,4,Southbound,15195,Broad St & Christian St,39.940151,-75.166366,Spring 2025,20,64,8,11,4,9
-8367502.84992357,4857111.06395382,735,Bus,4,Southbound,15196,Broad St & Carpenter St,39.939201,-75.166557,Spring 2025,11,44,5,26,2,27
-8364420.74718198,4871618.68817294,736,Bus,4,Southbound,16044,Chew Av & 11th St - FS,40.039051,-75.13887,Spring 2025,8,0,1,0,0,0
-8364296.73726924,4871593.67932475,737,Bus,4,Southbound,16045,Chew Av & 10th St,40.038879,-75.137756,Spring 2025,5,0,0,0,0,0
-8364344.2706918,4871296.34058532,738,Bus,4,Southbound,16053,10th St & Tabor Rd,40.036834,-75.138183,Spring 2025,15,0,6,0,3,0
-8364364.64215862,4871171.01025263,739,Bus,4,Southbound,16054,10th St & Clarkson Av,40.035972,-75.138366,Spring 2025,8,0,4,0,1,0
-8364485.31248664,4871002.93633037,740,Bus,4,Southbound,16058,Wagner Av & Warnock St - FS,40.034816,-75.13945,Spring 2025,10,0,1,0,5,0
-8364549.76647181,4870909.30468892,741,Bus,4,Southbound,16061,10th St & Wagner Av - FS,40.034172,-75.140029,Spring 2025,17,0,7,0,6,0
-8364445.34878944,4870701.83524218,742,Bus,4,Southbound,16067,10th St & Fisher Av - FS,40.032745,-75.139091,Spring 2025,28,7,16,6,14,1
-8364478.5219977,4870499.31319268,743,Bus,4,Southbound,16071,10th St & Duncannon Av,40.031352,-75.139389,Spring 2025,19,8,8,3,9,1
-8364515.81402712,4870273.6797144,744,Bus,4,Southbound,16133,10th St & Lindley Av,40.0298,-75.139724,Spring 2025,44,22,18,5,17,1
-8364550.65702774,4870055.75637694,745,Bus,4,Southbound,16134,10th St & Ruscomb St,40.028301,-75.140037,Spring 2025,30,9,18,3,11,3
